{"type": "FeatureCollection", "features": [{"id": "0", "type": "Feature", "properties": {"highway": "cycleway", "id": 15734818, "name": "Ciclabile Pergine - San Cristoforo", "type": "way"}, "geometry": {"type": "Point", "coordinates": [11.2349877, 46.0436982]}}, {"id": "1", "type": "Feature", "properties": {"highway": "residential", "id": 22328085, "name": "Via Guglielmo Marconi", "type": "way"}, "geometry": {"type": "Point", "coordinates": [11.2373642, 46.0632034]}}, {"id": "2", "type": "Feature", "properties": {"highway": "tertiary", "id": 23317343, "name": "Viale dell\u00b4Industria", "type": "way"}, "geometry": {"type": "Point", "coordinates": [11.2325992, 46.068452]}}, {"id": "3", "type": "Feature", "properties": {"highway": "unclassified", "id": 23317346, "name": "Via Tamarisi", "type": "way"}, "geometry": {"type": "Point", "coordinates": [11.2236835, 46.0674256]}}, {"id": "4", "type": "Feature", "properties": {"highway": "secondary", "id": 24014932, "name": "", "type": "way"}, "geometry": {"type": "Point", "coordinates": [11.2260973, 46.0673773]}}, {"id": "5", "type": "Feature", "properties": {"highway": "secondary", "id": 24015432, "name": "Viale Dante", "type": "way"}, "geometry": {"type": "Point", "coordinates": [11.2248155, 46.0686028]}}, {"id": "6", "type": "Feature", "properties": {"highway": "residential", "id": 24338033, "name": "Via Dosseti", "type": "way"}, "geometry": {"type": "Point", "coordinates": [11.237495, 46.0573302]}}, {"id": "7", "type": "Feature", "properties": {"highway": "secondary", "id": 24338060, "name": "Viale Dante", "type": "way"}, "geometry": {"type": "Point", "coordinates": [11.236677, 46.0619163]}}, {"id": "8", "type": "Feature", "properties": {"highway": "secondary", "id": 24338061, "name": "", "type": "way"}, "geometry": {"type": "Point", "coordinates": [11.2371084, 46.0618652]}}, {"id": "9", "type": "Feature", "properties": {"highway": "service", "id": 24694275, "name": "Via dele Fontanele", "type": "way"}, "geometry": {"type": "Point", "coordinates": [11.2124742, 46.0867329]}}, {"id": "10", "type": "Feature", "properties": {"highway": "unclassified", "id": 24694276, "name": "Via San Giovanni Battista", "type": "way"}, "geometry": {"type": "Point", "coordinates": [11.2133632, 46.0856429]}}, {"id": "11", "type": "Feature", "properties": {"highway": "unclassified", "id": 24694278, "name": "Via della Villa", "type": "way"}, "geometry": {"type": "Point", "coordinates": [11.2212072, 46.0833976]}}, {"id": "12", "type": "Feature", "properties": {"highway": "tertiary", "id": 24694363, "name": "", "type": "way"}, "geometry": {"type": "Point", "coordinates": [11.2207971, 46.0831671]}}, {"id": "13", "type": "Feature", "properties": {"highway": "secondary", "id": 24694366, "name": "", "type": "way"}, "geometry": {"type": "Point", "coordinates": [11.2365141, 46.0714451]}}, {"id": "14", "type": "Feature", "properties": {"highway": "tertiary", "id": 24694455, "name": "Via d'Oltrefersina", "type": "way"}, "geometry": {"type": "Point", "coordinates": [11.2154262, 46.0853774]}}, {"id": "15", "type": "Feature", "properties": {"highway": "secondary", "id": 24694456, "name": "Via al Ponte", "type": "way"}, "geometry": {"type": "Point", "coordinates": [11.2310776, 46.0826207]}}, {"id": "16", "type": "Feature", "properties": {"highway": "secondary", "id": 24694971, "name": "Via Regensburger", "type": "way"}, "geometry": {"type": "Point", "coordinates": [11.2420308, 46.0645038]}}, {"id": "17", "type": "Feature", "properties": {"highway": "secondary", "id": 24694972, "name": "Via Regensburger", "type": "way"}, "geometry": {"type": "Point", "coordinates": [11.2366906, 46.0714249]}}, {"id": "18", "type": "Feature", "properties": {"highway": "secondary", "id": 24695114, "name": "Via Baratieri", "type": "way"}, "geometry": {"type": "Point", "coordinates": [11.2430362, 46.0640644]}}, {"id": "19", "type": "Feature", "properties": {"highway": "secondary", "id": 24695116, "name": "Viale degli Alpini", "type": "way"}, "geometry": {"type": "Point", "coordinates": [11.2414291, 46.0635282]}}, {"id": "20", "type": "Feature", "properties": {"highway": "residential", "id": 24695194, "name": "Piazza San Rocco", "type": "way"}, "geometry": {"type": "Point", "coordinates": [11.239508, 46.0585946]}}, {"id": "21", "type": "Feature", "properties": {"highway": "residential", "id": 24695195, "name": "Piazza San Rocco", "type": "way"}, "geometry": {"type": "Point", "coordinates": [11.2397285, 46.0585203]}}, {"id": "22", "type": "Feature", "properties": {"highway": "service", "id": 24730257, "name": "", "type": "way"}, "geometry": {"type": "Point", "coordinates": [11.2374892, 46.0574208]}}, {"id": "23", "type": "Feature", "properties": {"highway": "unclassified", "id": 24772738, "name": "", "type": "way"}, "geometry": {"type": "Point", "coordinates": [11.2383174, 46.0848112]}}, {"id": "24", "type": "Feature", "properties": {"highway": "unclassified", "id": 24790716, "name": "Via delle Spone", "type": "way"}, "geometry": {"type": "Point", "coordinates": [11.2058068, 46.0784945]}}, {"id": "25", "type": "Feature", "properties": {"highway": "secondary", "id": 24794531, "name": "", "type": "way"}, "geometry": {"type": "Point", "coordinates": [11.2138511, 46.1076884]}}, {"id": "26", "type": "Feature", "properties": {"highway": "secondary", "id": 24845005, "name": "Via Pinetana", "type": "way"}, "geometry": {"type": "Point", "coordinates": [11.2120837, 46.1017197]}}, {"id": "27", "type": "Feature", "properties": {"highway": "unclassified", "id": 24867305, "name": "Via delle Capit\u00e8le", "type": "way"}, "geometry": {"type": "Point", "coordinates": [11.2304694, 46.0434453]}}, {"id": "28", "type": "Feature", "properties": {"highway": "tertiary", "id": 24867320, "name": "Via dell'Angi", "type": "way"}, "geometry": {"type": "Point", "coordinates": [11.2309835, 46.0429649]}}, {"id": "29", "type": "Feature", "properties": {"highway": "unclassified", "id": 24867405, "name": "Viale delle Nazioni Unite", "type": "way"}, "geometry": {"type": "Point", "coordinates": [11.2279543, 46.0430815]}}, {"id": "30", "type": "Feature", "properties": {"highway": "unclassified", "id": 24890312, "name": "Piazza della Fontana", "type": "way"}, "geometry": {"type": "Point", "coordinates": [11.2265018, 46.043853]}}, {"id": "31", "type": "Feature", "properties": {"highway": "residential", "id": 24890318, "name": "Via della Busa", "type": "way"}, "geometry": {"type": "Point", "coordinates": [11.229042, 46.042157]}}, {"id": "32", "type": "Feature", "properties": {"highway": "residential", "id": 24890338, "name": "Via della Busa", "type": "way"}, "geometry": {"type": "Point", "coordinates": [11.2269237, 46.0423745]}}, {"id": "33", "type": "Feature", "properties": {"highway": "unclassified", "id": 24890405, "name": "Via delle Val\u00e9ne", "type": "way"}, "geometry": {"type": "Point", "coordinates": [11.2293853, 46.0411918]}}, {"id": "34", "type": "Feature", "properties": {"highway": "unclassified", "id": 24890416, "name": "Via delle Valene", "type": "way"}, "geometry": {"type": "Point", "coordinates": [11.2306788, 46.0409518]}}, {"id": "35", "type": "Feature", "properties": {"highway": "unclassified", "id": 24890428, "name": "Via della Carezza", "type": "way"}, "geometry": {"type": "Point", "coordinates": [11.2271164, 46.0442681]}}, {"id": "36", "type": "Feature", "properties": {"highway": "unclassified", "id": 24914433, "name": "Via ai Coredi", "type": "way"}, "geometry": {"type": "Point", "coordinates": [11.2135704, 46.0834394]}}, {"id": "37", "type": "Feature", "properties": {"highway": "unclassified", "id": 24914434, "name": "Via di San Giovanni Battista", "type": "way"}, "geometry": {"type": "Point", "coordinates": [11.2148939, 46.0852475]}}, {"id": "38", "type": "Feature", "properties": {"highway": "pedestrian", "id": 24914763, "name": "Piazza del Municipio", "type": "way"}, "geometry": {"type": "Point", "coordinates": [11.2403863, 46.0603864]}}, {"id": "39", "type": "Feature", "properties": {"highway": "residential", "id": 24914764, "name": "Via Cesare Battisti Marcadel", "type": "way"}, "geometry": {"type": "Point", "coordinates": [11.2432526, 46.0619671]}}, {"id": "40", "type": "Feature", "properties": {"highway": "unclassified", "id": 25149316, "name": "", "type": "way"}, "geometry": {"type": "Point", "coordinates": [11.2270567, 46.0850743]}}, {"id": "41", "type": "Feature", "properties": {"highway": "unclassified", "id": 25149317, "name": "", "type": "way"}, "geometry": {"type": "Point", "coordinates": [11.2311265, 46.093031]}}, {"id": "42", "type": "Feature", "properties": {"highway": "unclassified", "id": 25150307, "name": "Via del Campo Sportivo", "type": "way"}, "geometry": {"type": "Point", "coordinates": [11.216641, 46.0854502]}}, {"id": "43", "type": "Feature", "properties": {"highway": "unclassified", "id": 25150309, "name": "", "type": "way"}, "geometry": {"type": "Point", "coordinates": [11.213169, 46.0926533]}}, {"id": "44", "type": "Feature", "properties": {"highway": "unclassified", "id": 25150310, "name": "", "type": "way"}, "geometry": {"type": "Point", "coordinates": [11.2127761, 46.0912233]}}, {"id": "45", "type": "Feature", "properties": {"highway": "residential", "id": 25150311, "name": "", "type": "way"}, "geometry": {"type": "Point", "coordinates": [11.213692, 46.0902526]}}, {"id": "46", "type": "Feature", "properties": {"highway": "unclassified", "id": 25151190, "name": "Via al Lago Pudro", "type": "way"}, "geometry": {"type": "Point", "coordinates": [11.2185591, 46.0814347]}}, {"id": "47", "type": "Feature", "properties": {"highway": "track", "id": 25151192, "name": "", "type": "way"}, "geometry": {"type": "Point", "coordinates": [11.2167155, 46.0813171]}}, {"id": "48", "type": "Feature", "properties": {"highway": "track", "id": 25151194, "name": "", "type": "way"}, "geometry": {"type": "Point", "coordinates": [11.2214579, 46.0769474]}}, {"id": "49", "type": "Feature", "properties": {"highway": "unclassified", "id": 25151196, "name": "Via del Pal\u00f9", "type": "way"}, "geometry": {"type": "Point", "coordinates": [11.2177096, 46.0839078]}}, {"id": "50", "type": "Feature", "properties": {"highway": "service", "id": 25151198, "name": "", "type": "way"}, "geometry": {"type": "Point", "coordinates": [11.2143876, 46.0849068]}}, {"id": "51", "type": "Feature", "properties": {"highway": "unclassified", "id": 25152033, "name": "Via dei Sgualdi", "type": "way"}, "geometry": {"type": "Point", "coordinates": [11.2284623, 46.0785177]}}, {"id": "52", "type": "Feature", "properties": {"highway": "unclassified", "id": 25211723, "name": "Via Valdigola", "type": "way"}, "geometry": {"type": "Point", "coordinates": [11.2126131, 46.082249]}}, {"id": "53", "type": "Feature", "properties": {"highway": "residential", "id": 25298050, "name": "Viale del Lido", "type": "way"}, "geometry": {"type": "Point", "coordinates": [11.2332123, 46.0371916]}}, {"id": "54", "type": "Feature", "properties": {"highway": "unclassified", "id": 25426297, "name": "Via a Iol", "type": "way"}, "geometry": {"type": "Point", "coordinates": [11.2132061, 46.0877074]}}, {"id": "55", "type": "Feature", "properties": {"highway": "service", "id": 25426299, "name": "", "type": "way"}, "geometry": {"type": "Point", "coordinates": [11.2136141, 46.0862242]}}, {"id": "56", "type": "Feature", "properties": {"highway": "track", "id": 25426301, "name": "Via a Iol", "type": "way"}, "geometry": {"type": "Point", "coordinates": [11.2120652, 46.0886004]}}, {"id": "57", "type": "Feature", "properties": {"highway": "track", "id": 25426302, "name": "", "type": "way"}, "geometry": {"type": "Point", "coordinates": [11.210776, 46.087311]}}, {"id": "58", "type": "Feature", "properties": {"highway": "track", "id": 25426303, "name": "Via a Iol", "type": "way"}, "geometry": {"type": "Point", "coordinates": [11.2115971, 46.0892857]}}, {"id": "59", "type": "Feature", "properties": {"highway": "pedestrian", "id": 25454426, "name": "Piazza Giuseppe Prada", "type": "way"}, "geometry": {"type": "Point", "coordinates": [11.215069588740125, 46.0855202]}}, {"id": "60", "type": "Feature", "properties": {"highway": "pedestrian", "id": 25454428, "name": "Piazza Giuseppe Prada", "type": "way"}, "geometry": {"type": "Point", "coordinates": [11.215203620753284, 46.08562605]}}, {"id": "61", "type": "Feature", "properties": {"highway": "track", "id": 25454678, "name": "", "type": "way"}, "geometry": {"type": "Point", "coordinates": [11.2155026, 46.0774963]}}, {"id": "62", "type": "Feature", "properties": {"highway": "unclassified", "id": 25454680, "name": "", "type": "way"}, "geometry": {"type": "Point", "coordinates": [11.2228479, 46.0842646]}}, {"id": "63", "type": "Feature", "properties": {"highway": "track", "id": 25454681, "name": "", "type": "way"}, "geometry": {"type": "Point", "coordinates": [11.2215405, 46.0847406]}}, {"id": "64", "type": "Feature", "properties": {"highway": "track", "id": 25454682, "name": "", "type": "way"}, "geometry": {"type": "Point", "coordinates": [11.2222402, 46.0849216]}}, {"id": "65", "type": "Feature", "properties": {"highway": "pedestrian", "id": 25455190, "name": "", "type": "way"}, "geometry": {"type": "Point", "coordinates": [11.214218458225808, 46.08500435]}}, {"id": "66", "type": "Feature", "properties": {"highway": "steps", "id": 25455222, "name": "", "type": "way"}, "geometry": {"type": "Point", "coordinates": [11.2141558, 46.0849909]}}, {"id": "67", "type": "Feature", "properties": {"highway": "residential", "id": 25485089, "name": "", "type": "way"}, "geometry": {"type": "Point", "coordinates": [11.2088987, 46.0845167]}}, {"id": "68", "type": "Feature", "properties": {"highway": "unclassified", "id": 25485090, "name": "Via dei Dossi", "type": "way"}, "geometry": {"type": "Point", "coordinates": [11.209569, 46.0838009]}}, {"id": "69", "type": "Feature", "properties": {"highway": "unclassified", "id": 25485096, "name": "", "type": "way"}, "geometry": {"type": "Point", "coordinates": [11.2091305, 46.0866688]}}, {"id": "70", "type": "Feature", "properties": {"highway": "track", "id": 25485177, "name": "", "type": "way"}, "geometry": {"type": "Point", "coordinates": [11.2103655, 46.0841194]}}, {"id": "71", "type": "Feature", "properties": {"highway": "residential", "id": 25485178, "name": "Via dei Casai", "type": "way"}, "geometry": {"type": "Point", "coordinates": [11.2109107, 46.0847705]}}, {"id": "72", "type": "Feature", "properties": {"highway": "service", "id": 25485179, "name": "", "type": "way"}, "geometry": {"type": "Point", "coordinates": [11.2108872, 46.0840839]}}, {"id": "73", "type": "Feature", "properties": {"highway": "service", "id": 25485180, "name": "", "type": "way"}, "geometry": {"type": "Point", "coordinates": [11.2116493, 46.0838713]}}, {"id": "74", "type": "Feature", "properties": {"highway": "service", "id": 25485181, "name": "", "type": "way"}, "geometry": {"type": "Point", "coordinates": [11.2121125, 46.0836646]}}, {"id": "75", "type": "Feature", "properties": {"highway": "service", "id": 25485228, "name": "", "type": "way"}, "geometry": {"type": "Point", "coordinates": [11.2106019, 46.0858706]}}, {"id": "76", "type": "Feature", "properties": {"highway": "service", "id": 25485383, "name": "", "type": "way"}, "geometry": {"type": "Point", "coordinates": [11.2086119, 46.0848595]}}, {"id": "77", "type": "Feature", "properties": {"highway": "track", "id": 25485389, "name": "", "type": "way"}, "geometry": {"type": "Point", "coordinates": [11.2087604, 46.0840617]}}, {"id": "78", "type": "Feature", "properties": {"highway": "residential", "id": 25554664, "name": "Via San Giuseppe", "type": "way"}, "geometry": {"type": "Point", "coordinates": [11.2119687, 46.1036809]}}, {"id": "79", "type": "Feature", "properties": {"highway": "unclassified", "id": 25554966, "name": "", "type": "way"}, "geometry": {"type": "Point", "coordinates": [11.2073593, 46.0886225]}}, {"id": "80", "type": "Feature", "properties": {"highway": "unclassified", "id": 25554967, "name": "", "type": "way"}, "geometry": {"type": "Point", "coordinates": [11.2069514, 46.087762]}}, {"id": "81", "type": "Feature", "properties": {"highway": "unclassified", "id": 25555078, "name": "Via dei Cuori", "type": "way"}, "geometry": {"type": "Point", "coordinates": [11.2153562, 46.0846676]}}, {"id": "82", "type": "Feature", "properties": {"highway": "unclassified", "id": 25555344, "name": "Via al Castello", "type": "way"}, "geometry": {"type": "Point", "coordinates": [11.2480104, 46.0529404]}}, {"id": "83", "type": "Feature", "properties": {"highway": "residential", "id": 25607010, "name": "", "type": "way"}, "geometry": {"type": "Point", "coordinates": [11.2162194, 46.0850607]}}, {"id": "84", "type": "Feature", "properties": {"highway": "unclassified", "id": 25610908, "name": "Via del Capitel", "type": "way"}, "geometry": {"type": "Point", "coordinates": [11.211312, 46.1029063]}}, {"id": "85", "type": "Feature", "properties": {"highway": "secondary", "id": 26137669, "name": "Via Pinetana", "type": "way"}, "geometry": {"type": "Point", "coordinates": [11.2116881, 46.1020233]}}, {"id": "86", "type": "Feature", "properties": {"highway": "tertiary", "id": 26438559, "name": "Via Rosmini", "type": "way"}, "geometry": {"type": "Point", "coordinates": [11.2363153, 46.0618753]}}, {"id": "87", "type": "Feature", "properties": {"highway": "tertiary", "id": 26438579, "name": "", "type": "way"}, "geometry": {"type": "Point", "coordinates": [11.230199, 46.0609794]}}, {"id": "88", "type": "Feature", "properties": {"highway": "tertiary", "id": 26438594, "name": "", "type": "way"}, "geometry": {"type": "Point", "coordinates": [11.23005, 46.0610831]}}, {"id": "89", "type": "Feature", "properties": {"highway": "unclassified", "id": 26768837, "name": "", "type": "way"}, "geometry": {"type": "Point", "coordinates": [11.2351144, 46.0734725]}}, {"id": "90", "type": "Feature", "properties": {"highway": "unclassified", "id": 26769363, "name": "Viale Vito Bellini", "type": "way"}, "geometry": {"type": "Point", "coordinates": [11.2369108, 46.0670747]}}, {"id": "91", "type": "Feature", "properties": {"highway": "unclassified", "id": 26769364, "name": "Via dei Prati", "type": "way"}, "geometry": {"type": "Point", "coordinates": [11.2348586, 46.0666723]}}, {"id": "92", "type": "Feature", "properties": {"highway": "residential", "id": 26769365, "name": "Via Francesco Petrarca", "type": "way"}, "geometry": {"type": "Point", "coordinates": [11.2330822, 46.0650705]}}, {"id": "93", "type": "Feature", "properties": {"highway": "residential", "id": 26769367, "name": "Via Paganella", "type": "way"}, "geometry": {"type": "Point", "coordinates": [11.232821, 46.0660387]}}, {"id": "94", "type": "Feature", "properties": {"highway": "residential", "id": 26769368, "name": "Via Monte Cristallo", "type": "way"}, "geometry": {"type": "Point", "coordinates": [11.2369108, 46.0670747]}}, {"id": "95", "type": "Feature", "properties": {"highway": "unclassified", "id": 26769369, "name": "Via Paradiso", "type": "way"}, "geometry": {"type": "Point", "coordinates": [11.2393544, 46.066442]}}, {"id": "96", "type": "Feature", "properties": {"highway": "service", "id": 26769371, "name": "", "type": "way"}, "geometry": {"type": "Point", "coordinates": [11.2406869, 46.0643112]}}, {"id": "97", "type": "Feature", "properties": {"highway": "pedestrian", "id": 26769374, "name": "", "type": "way"}, "geometry": {"type": "Point", "coordinates": [11.2397608, 46.0652431]}}, {"id": "98", "type": "Feature", "properties": {"highway": "unclassified", "id": 26771879, "name": "Via Fersina", "type": "way"}, "geometry": {"type": "Point", "coordinates": [11.2390958, 46.0687808]}}, {"id": "99", "type": "Feature", "properties": {"highway": "residential", "id": 26771880, "name": "Via Pietro Mascagni", "type": "way"}, "geometry": {"type": "Point", "coordinates": [11.2369609, 46.0658862]}}, {"id": "100", "type": "Feature", "properties": {"highway": "unclassified", "id": 26771911, "name": "Via Pasubio", "type": "way"}, "geometry": {"type": "Point", "coordinates": [11.2405721, 46.0665346]}}, {"id": "101", "type": "Feature", "properties": {"highway": "residential", "id": 26772026, "name": "Via dei Canopi", "type": "way"}, "geometry": {"type": "Point", "coordinates": [11.2396784, 46.0634126]}}, {"id": "102", "type": "Feature", "properties": {"highway": "secondary", "id": 26772027, "name": "Viale degli Alpini", "type": "way"}, "geometry": {"type": "Point", "coordinates": [11.2388046, 46.0624299]}}, {"id": "103", "type": "Feature", "properties": {"highway": "residential", "id": 26772030, "name": "", "type": "way"}, "geometry": {"type": "Point", "coordinates": [11.2377557, 46.0618302]}}, {"id": "104", "type": "Feature", "properties": {"highway": "unclassified", "id": 26772519, "name": "Via delle Dolomiti", "type": "way"}, "geometry": {"type": "Point", "coordinates": [11.2435379, 46.0681426]}}, {"id": "105", "type": "Feature", "properties": {"highway": "unclassified", "id": 26772521, "name": "Strada del Mani", "type": "way"}, "geometry": {"type": "Point", "coordinates": [11.2493038, 46.0694642]}}, {"id": "106", "type": "Feature", "properties": {"highway": "residential", "id": 26772522, "name": "Via dei Caduti", "type": "way"}, "geometry": {"type": "Point", "coordinates": [11.245334, 46.0671567]}}, {"id": "107", "type": "Feature", "properties": {"highway": "unclassified", "id": 26772523, "name": "Via Montesei", "type": "way"}, "geometry": {"type": "Point", "coordinates": [11.2432797, 46.0700439]}}, {"id": "108", "type": "Feature", "properties": {"highway": "unclassified", "id": 26773244, "name": "Via Vigolana", "type": "way"}, "geometry": {"type": "Point", "coordinates": [11.2327566, 46.0588966]}}, {"id": "109", "type": "Feature", "properties": {"highway": "tertiary", "id": 26773246, "name": "Via Molin del Pal\u00f9", "type": "way"}, "geometry": {"type": "Point", "coordinates": [11.2333271, 46.0550848]}}, {"id": "110", "type": "Feature", "properties": {"highway": "tertiary", "id": 26773247, "name": "Via Pomar\u00f2l", "type": "way"}, "geometry": {"type": "Point", "coordinates": [11.2324977, 46.0549132]}}, {"id": "111", "type": "Feature", "properties": {"highway": "residential", "id": 26773249, "name": "Via Marzola", "type": "way"}, "geometry": {"type": "Point", "coordinates": [11.2368117, 46.0588666]}}, {"id": "112", "type": "Feature", "properties": {"highway": "residential", "id": 26773251, "name": "Via Graberi", "type": "way"}, "geometry": {"type": "Point", "coordinates": [11.2356039, 46.0600254]}}, {"id": "113", "type": "Feature", "properties": {"highway": "residential", "id": 26773288, "name": "Via Calisio", "type": "way"}, "geometry": {"type": "Point", "coordinates": [11.2359719, 46.0595058]}}, {"id": "114", "type": "Feature", "properties": {"highway": "residential", "id": 26773363, "name": "Via Bortolamei", "type": "way"}, "geometry": {"type": "Point", "coordinates": [11.2396692, 46.0590381]}}, {"id": "115", "type": "Feature", "properties": {"highway": "residential", "id": 26773364, "name": "Via Brenta", "type": "way"}, "geometry": {"type": "Point", "coordinates": [11.2373422, 46.0589976]}}, {"id": "116", "type": "Feature", "properties": {"highway": "residential", "id": 26773368, "name": "Via Tre Novembre", "type": "way"}, "geometry": {"type": "Point", "coordinates": [11.2422991, 46.0610954]}}, {"id": "117", "type": "Feature", "properties": {"highway": "tertiary", "id": 26773669, "name": "Via per Alber\u00e9", "type": "way"}, "geometry": {"type": "Point", "coordinates": [11.2475969, 46.0320159]}}, {"id": "118", "type": "Feature", "properties": {"highway": "residential", "id": 26773670, "name": "Via per Alber\u00e9", "type": "way"}, "geometry": {"type": "Point", "coordinates": [11.2476079, 46.0319722]}}, {"id": "119", "type": "Feature", "properties": {"highway": "residential", "id": 26773672, "name": "Via di Campolongo", "type": "way"}, "geometry": {"type": "Point", "coordinates": [11.2472312, 46.0278768]}}, {"id": "120", "type": "Feature", "properties": {"highway": "unclassified", "id": 26773673, "name": "Strada Romana", "type": "way"}, "geometry": {"type": "Point", "coordinates": [11.2479928, 46.0296785]}}, {"id": "121", "type": "Feature", "properties": {"highway": "residential", "id": 26773675, "name": "Via Don Giovanni Angeli", "type": "way"}, "geometry": {"type": "Point", "coordinates": [11.2473698, 46.032698]}}, {"id": "122", "type": "Feature", "properties": {"highway": "residential", "id": 26773676, "name": "Via Valdesas", "type": "way"}, "geometry": {"type": "Point", "coordinates": [11.2463454, 46.0341951]}}, {"id": "123", "type": "Feature", "properties": {"highway": "unclassified", "id": 26773705, "name": "Via Rivedele", "type": "way"}, "geometry": {"type": "Point", "coordinates": [11.2503383, 46.0317896]}}, {"id": "124", "type": "Feature", "properties": {"highway": "residential", "id": 26773785, "name": "Via Rivedele", "type": "way"}, "geometry": {"type": "Point", "coordinates": [11.2499237, 46.0316698]}}, {"id": "125", "type": "Feature", "properties": {"highway": "tertiary", "id": 26774121, "name": "Piazza Giuseppe Prada", "type": "way"}, "geometry": {"type": "Point", "coordinates": [11.2144814, 46.0860576]}}, {"id": "126", "type": "Feature", "properties": {"highway": "tertiary", "id": 26774122, "name": "Piazza Giuseppe Prada", "type": "way"}, "geometry": {"type": "Point", "coordinates": [11.2146654, 46.0860374]}}, {"id": "127", "type": "Feature", "properties": {"highway": "tertiary", "id": 26774123, "name": "Piazza Giuseppe Prada", "type": "way"}, "geometry": {"type": "Point", "coordinates": [11.2145142, 46.0861933]}}, {"id": "128", "type": "Feature", "properties": {"highway": "residential", "id": 26788499, "name": "Via Vigolana", "type": "way"}, "geometry": {"type": "Point", "coordinates": [11.2334626, 46.0580859]}}, {"id": "129", "type": "Feature", "properties": {"highway": "residential", "id": 26788501, "name": "", "type": "way"}, "geometry": {"type": "Point", "coordinates": [11.2327135, 46.0603332]}}, {"id": "130", "type": "Feature", "properties": {"highway": "residential", "id": 26788502, "name": "", "type": "way"}, "geometry": {"type": "Point", "coordinates": [11.2348256, 46.0588606]}}, {"id": "131", "type": "Feature", "properties": {"highway": "residential", "id": 26788503, "name": "Via Graberi", "type": "way"}, "geometry": {"type": "Point", "coordinates": [11.2346582, 46.060304]}}, {"id": "132", "type": "Feature", "properties": {"highway": "unclassified", "id": 26788504, "name": "", "type": "way"}, "geometry": {"type": "Point", "coordinates": [11.2316725, 46.0590349]}}, {"id": "133", "type": "Feature", "properties": {"highway": "residential", "id": 26788505, "name": "Via Graberi", "type": "way"}, "geometry": {"type": "Point", "coordinates": [11.2351627, 46.0607017]}}, {"id": "134", "type": "Feature", "properties": {"highway": "residential", "id": 26788506, "name": "Via Graberi", "type": "way"}, "geometry": {"type": "Point", "coordinates": [11.2341773, 46.0610425]}}, {"id": "135", "type": "Feature", "properties": {"highway": "residential", "id": 26788507, "name": "Via Monte Orno", "type": "way"}, "geometry": {"type": "Point", "coordinates": [11.2334714, 46.0592246]}}, {"id": "136", "type": "Feature", "properties": {"highway": "residential", "id": 26788515, "name": "", "type": "way"}, "geometry": {"type": "Point", "coordinates": [11.2350248, 46.0579127]}}, {"id": "137", "type": "Feature", "properties": {"highway": "residential", "id": 26788516, "name": "", "type": "way"}, "geometry": {"type": "Point", "coordinates": [11.2340312, 46.0575106]}}, {"id": "138", "type": "Feature", "properties": {"highway": "residential", "id": 26788523, "name": "", "type": "way"}, "geometry": {"type": "Point", "coordinates": [11.2345709, 46.0565633]}}, {"id": "139", "type": "Feature", "properties": {"highway": "tertiary", "id": 26788535, "name": "", "type": "way"}, "geometry": {"type": "Point", "coordinates": [11.2363733, 46.0563784]}}, {"id": "140", "type": "Feature", "properties": {"highway": "residential", "id": 26788597, "name": "Via Paludi", "type": "way"}, "geometry": {"type": "Point", "coordinates": [11.2393454, 46.0529561]}}, {"id": "141", "type": "Feature", "properties": {"highway": "unclassified", "id": 26788598, "name": "Via del R\u00e0stel", "type": "way"}, "geometry": {"type": "Point", "coordinates": [11.2402125, 46.043774]}}, {"id": "142", "type": "Feature", "properties": {"highway": "residential", "id": 26788600, "name": "Via Cismon", "type": "way"}, "geometry": {"type": "Point", "coordinates": [11.2424729, 46.0535643]}}, {"id": "143", "type": "Feature", "properties": {"highway": "residential", "id": 26788601, "name": "", "type": "way"}, "geometry": {"type": "Point", "coordinates": [11.2427533, 46.053149]}}, {"id": "144", "type": "Feature", "properties": {"highway": "residential", "id": 26788602, "name": "", "type": "way"}, "geometry": {"type": "Point", "coordinates": [11.2426021, 46.0531187]}}, {"id": "145", "type": "Feature", "properties": {"highway": "unclassified", "id": 26788608, "name": "Via Bassano", "type": "way"}, "geometry": {"type": "Point", "coordinates": [11.2379312, 46.0543399]}}, {"id": "146", "type": "Feature", "properties": {"highway": "residential", "id": 26788631, "name": "Via Sacchi", "type": "way"}, "geometry": {"type": "Point", "coordinates": [11.2405614, 46.0544459]}}, {"id": "147", "type": "Feature", "properties": {"highway": "residential", "id": 26788634, "name": "", "type": "way"}, "geometry": {"type": "Point", "coordinates": [11.2396956, 46.0552981]}}, {"id": "148", "type": "Feature", "properties": {"highway": "service", "id": 26788635, "name": "", "type": "way"}, "geometry": {"type": "Point", "coordinates": [11.2382846, 46.0554293]}}, {"id": "149", "type": "Feature", "properties": {"highway": "residential", "id": 26788848, "name": "Via Fravort", "type": "way"}, "geometry": {"type": "Point", "coordinates": [11.2454409, 46.0647032]}}, {"id": "150", "type": "Feature", "properties": {"highway": "residential", "id": 26788851, "name": "Via Guglielmo Marconi", "type": "way"}, "geometry": {"type": "Point", "coordinates": [11.2433452, 46.0646992]}}, {"id": "151", "type": "Feature", "properties": {"highway": "residential", "id": 26788853, "name": "", "type": "way"}, "geometry": {"type": "Point", "coordinates": [11.2449435, 46.066843]}}, {"id": "152", "type": "Feature", "properties": {"highway": "pedestrian", "id": 26789067, "name": "Piazza del Municipio", "type": "way"}, "geometry": {"type": "Point", "coordinates": [11.240505377591962, 46.060360349999996]}}, {"id": "153", "type": "Feature", "properties": {"highway": "pedestrian", "id": 26789068, "name": "Piazza Fruet", "type": "way"}, "geometry": {"type": "Point", "coordinates": [11.240878141363702, 46.060701699999996]}}, {"id": "154", "type": "Feature", "properties": {"highway": "residential", "id": 26789069, "name": "Via dei Cerri", "type": "way"}, "geometry": {"type": "Point", "coordinates": [11.2410363, 46.0605095]}}, {"id": "155", "type": "Feature", "properties": {"highway": "residential", "id": 26789071, "name": "Via Chimelli", "type": "way"}, "geometry": {"type": "Point", "coordinates": [11.2405473, 46.0625206]}}, {"id": "156", "type": "Feature", "properties": {"highway": "residential", "id": 26789155, "name": "Via Ruggero Rossi", "type": "way"}, "geometry": {"type": "Point", "coordinates": [11.2378058, 46.0595623]}}, {"id": "157", "type": "Feature", "properties": {"highway": "residential", "id": 26789156, "name": "Spiaz dele Oche/Piazza Pacini", "type": "way"}, "geometry": {"type": "Point", "coordinates": [11.2390179, 46.059172]}}, {"id": "158", "type": "Feature", "properties": {"highway": "residential", "id": 26789528, "name": "Via Pontara", "type": "way"}, "geometry": {"type": "Point", "coordinates": [11.2395157, 46.0573281]}}, {"id": "159", "type": "Feature", "properties": {"highway": "unclassified", "id": 26790735, "name": "Piazza di S.Floriano", "type": "way"}, "geometry": {"type": "Point", "coordinates": [11.2234502, 46.0510013]}}, {"id": "160", "type": "Feature", "properties": {"highway": "unclassified", "id": 26790736, "name": "Via delle Port\u00e8le", "type": "way"}, "geometry": {"type": "Point", "coordinates": [11.224514, 46.049811]}}, {"id": "161", "type": "Feature", "properties": {"highway": "unclassified", "id": 26790737, "name": "Via delle B\u00eczere", "type": "way"}, "geometry": {"type": "Point", "coordinates": [11.2233656, 46.0472071]}}, {"id": "162", "type": "Feature", "properties": {"highway": "track", "id": 26790738, "name": "Via dei Cortellini", "type": "way"}, "geometry": {"type": "Point", "coordinates": [11.2249402, 46.0471914]}}, {"id": "163", "type": "Feature", "properties": {"highway": "unclassified", "id": 26790739, "name": "Via dei Aoni", "type": "way"}, "geometry": {"type": "Point", "coordinates": [11.2239163, 46.0462742]}}, {"id": "164", "type": "Feature", "properties": {"highway": "unclassified", "id": 26790882, "name": "Piazza della Fontana", "type": "way"}, "geometry": {"type": "Point", "coordinates": [11.2266055, 46.0439376]}}, {"id": "165", "type": "Feature", "properties": {"highway": "unclassified", "id": 26790883, "name": "Via delle St\u00f3nfe", "type": "way"}, "geometry": {"type": "Point", "coordinates": [11.231761, 46.0486986]}}, {"id": "166", "type": "Feature", "properties": {"highway": "unclassified", "id": 26790884, "name": "Via dei Postini", "type": "way"}, "geometry": {"type": "Point", "coordinates": [11.2219583, 46.052514]}}, {"id": "167", "type": "Feature", "properties": {"highway": "residential", "id": 27134982, "name": "Piazza di Sant'Anna", "type": "way"}, "geometry": {"type": "Point", "coordinates": [11.2074336, 46.0691974]}}, {"id": "168", "type": "Feature", "properties": {"highway": "unclassified", "id": 27134984, "name": "Via don Giovanni Sopperra", "type": "way"}, "geometry": {"type": "Point", "coordinates": [11.2237197, 46.0494581]}}, {"id": "169", "type": "Feature", "properties": {"highway": "residential", "id": 27134985, "name": "Via dei ciliegi", "type": "way"}, "geometry": {"type": "Point", "coordinates": [11.2224399, 46.0492988]}}, {"id": "170", "type": "Feature", "properties": {"highway": "residential", "id": 27134986, "name": "Via ai Restelani", "type": "way"}, "geometry": {"type": "Point", "coordinates": [11.2198896, 46.0516799]}}, {"id": "171", "type": "Feature", "properties": {"highway": "unclassified", "id": 28920843, "name": "", "type": "way"}, "geometry": {"type": "Point", "coordinates": [11.2342149, 46.0670858]}}, {"id": "172", "type": "Feature", "properties": {"highway": "unclassified", "id": 28920844, "name": "Via Zandonai", "type": "way"}, "geometry": {"type": "Point", "coordinates": [11.2379574, 46.066504]}}, {"id": "173", "type": "Feature", "properties": {"highway": "residential", "id": 28920845, "name": "", "type": "way"}, "geometry": {"type": "Point", "coordinates": [11.2349309, 46.0643783]}}, {"id": "174", "type": "Feature", "properties": {"highway": "residential", "id": 28920847, "name": "Via Guglielmo Marconi", "type": "way"}, "geometry": {"type": "Point", "coordinates": [11.2360704, 46.0631027]}}, {"id": "175", "type": "Feature", "properties": {"highway": "residential", "id": 28920848, "name": "Via dei Monti Pallidi", "type": "way"}, "geometry": {"type": "Point", "coordinates": [11.2366496, 46.0632891]}}, {"id": "176", "type": "Feature", "properties": {"highway": "residential", "id": 28920849, "name": "Piazza Garibaldi", "type": "way"}, "geometry": {"type": "Point", "coordinates": [11.2379859, 46.0613731]}}, {"id": "177", "type": "Feature", "properties": {"highway": "residential", "id": 28920854, "name": "Via Fabio Filzi", "type": "way"}, "geometry": {"type": "Point", "coordinates": [11.2425424, 46.0631983]}}, {"id": "178", "type": "Feature", "properties": {"highway": "pedestrian", "id": 28920967, "name": "Piazza Santa Maria", "type": "way"}, "geometry": {"type": "Point", "coordinates": [11.242164048553866, 46.06311915]}}, {"id": "179", "type": "Feature", "properties": {"highway": "pedestrian", "id": 28920969, "name": "Piazza Santa Maria", "type": "way"}, "geometry": {"type": "Point", "coordinates": [11.2421211, 46.0631245]}}, {"id": "180", "type": "Feature", "properties": {"highway": "secondary", "id": 28920972, "name": "Via Spolverine", "type": "way"}, "geometry": {"type": "Point", "coordinates": [11.2464773, 46.0650069]}}, {"id": "181", "type": "Feature", "properties": {"highway": "unclassified", "id": 28920974, "name": "Via Damiano Chiesa", "type": "way"}, "geometry": {"type": "Point", "coordinates": [11.2444716, 46.0641955]}}, {"id": "182", "type": "Feature", "properties": {"highway": "residential", "id": 28920977, "name": "Vicolo Molini", "type": "way"}, "geometry": {"type": "Point", "coordinates": [11.243627, 46.0631472]}}, {"id": "183", "type": "Feature", "properties": {"highway": "pedestrian", "id": 28921064, "name": "Via Generale Giuseppe Pennella", "type": "way"}, "geometry": {"type": "Point", "coordinates": [11.2396277, 46.0604501]}}, {"id": "184", "type": "Feature", "properties": {"highway": "residential", "id": 28921067, "name": "Via Giuseppe Verdi", "type": "way"}, "geometry": {"type": "Point", "coordinates": [11.2389032, 46.0597066]}}, {"id": "185", "type": "Feature", "properties": {"highway": "residential", "id": 28921114, "name": "Piazza Giovanni Serra", "type": "way"}, "geometry": {"type": "Point", "coordinates": [11.238673, 46.0602278]}}, {"id": "186", "type": "Feature", "properties": {"highway": "residential", "id": 28921115, "name": "Via Guglielmi", "type": "way"}, "geometry": {"type": "Point", "coordinates": [11.2428209, 46.0610097]}}, {"id": "187", "type": "Feature", "properties": {"highway": "residential", "id": 28921172, "name": "Via Tegazzo", "type": "way"}, "geometry": {"type": "Point", "coordinates": [11.2435316, 46.0613096]}}, {"id": "188", "type": "Feature", "properties": {"highway": "tertiary", "id": 28922351, "name": "", "type": "way"}, "geometry": {"type": "Point", "coordinates": [11.247428, 46.0721815]}}, {"id": "189", "type": "Feature", "properties": {"highway": "unclassified", "id": 28922353, "name": "Via Tamarisi", "type": "way"}, "geometry": {"type": "Point", "coordinates": [11.2248847, 46.0683155]}}, {"id": "190", "type": "Feature", "properties": {"highway": "unclassified", "id": 28922354, "name": "Via Tamarisi", "type": "way"}, "geometry": {"type": "Point", "coordinates": [11.2249343, 46.0682083]}}, {"id": "191", "type": "Feature", "properties": {"highway": "unclassified", "id": 28922355, "name": "Via Tamarisi", "type": "way"}, "geometry": {"type": "Point", "coordinates": [11.225072, 46.0680956]}}, {"id": "192", "type": "Feature", "properties": {"highway": "service", "id": 28922358, "name": "", "type": "way"}, "geometry": {"type": "Point", "coordinates": [11.2238574, 46.0677383]}}, {"id": "193", "type": "Feature", "properties": {"highway": "service", "id": 28922359, "name": "", "type": "way"}, "geometry": {"type": "Point", "coordinates": [11.2224684, 46.0674099]}}, {"id": "194", "type": "Feature", "properties": {"highway": "service", "id": 28922360, "name": "", "type": "way"}, "geometry": {"type": "Point", "coordinates": [11.2237892, 46.068542]}}, {"id": "195", "type": "Feature", "properties": {"highway": "service", "id": 28922364, "name": "", "type": "way"}, "geometry": {"type": "Point", "coordinates": [11.2242969, 46.0673014]}}, {"id": "196", "type": "Feature", "properties": {"highway": "service", "id": 28922932, "name": "", "type": "way"}, "geometry": {"type": "Point", "coordinates": [11.234294, 46.0709851]}}, {"id": "197", "type": "Feature", "properties": {"highway": "secondary", "id": 28922935, "name": "Via Regensburger", "type": "way"}, "geometry": {"type": "Point", "coordinates": [11.2373313, 46.0706255]}}, {"id": "198", "type": "Feature", "properties": {"highway": "secondary", "id": 28922936, "name": "Via Regensburger", "type": "way"}, "geometry": {"type": "Point", "coordinates": [11.2370204, 46.0709456]}}, {"id": "199", "type": "Feature", "properties": {"highway": "unclassified", "id": 28922938, "name": "Via del Salesa Lonch", "type": "way"}, "geometry": {"type": "Point", "coordinates": [11.2367848, 46.0716113]}}, {"id": "200", "type": "Feature", "properties": {"highway": "unclassified", "id": 28922939, "name": "Via Lago della Costa", "type": "way"}, "geometry": {"type": "Point", "coordinates": [11.2371199, 46.076864]}}, {"id": "201", "type": "Feature", "properties": {"highway": "unclassified", "id": 28922940, "name": "", "type": "way"}, "geometry": {"type": "Point", "coordinates": [11.2350279, 46.0802344]}}, {"id": "202", "type": "Feature", "properties": {"highway": "unclassified", "id": 28922941, "name": "", "type": "way"}, "geometry": {"type": "Point", "coordinates": [11.2343996, 46.0809279]}}, {"id": "203", "type": "Feature", "properties": {"highway": "track", "id": 28922942, "name": "", "type": "way"}, "geometry": {"type": "Point", "coordinates": [11.2314627, 46.0836774]}}, {"id": "204", "type": "Feature", "properties": {"highway": "track", "id": 28922943, "name": "", "type": "way"}, "geometry": {"type": "Point", "coordinates": [11.2344042, 46.0818891]}}, {"id": "205", "type": "Feature", "properties": {"highway": "unclassified", "id": 28924552, "name": "", "type": "way"}, "geometry": {"type": "Point", "coordinates": [11.2404024, 46.0701999]}}, {"id": "206", "type": "Feature", "properties": {"highway": "pedestrian", "id": 28924553, "name": "Vicolo delle Garberie", "type": "way"}, "geometry": {"type": "Point", "coordinates": [11.2397161, 46.0607463]}}, {"id": "207", "type": "Feature", "properties": {"highway": "path", "id": 29088870, "name": "", "type": "way"}, "geometry": {"type": "Point", "coordinates": [11.2184125, 46.0822628]}}, {"id": "208", "type": "Feature", "properties": {"highway": "unclassified", "id": 30076107, "name": "Frazione Barisei", "type": "way"}, "geometry": {"type": "Point", "coordinates": [11.2011481, 46.0827799]}}, {"id": "209", "type": "Feature", "properties": {"highway": "secondary", "id": 30253615, "name": "", "type": "way"}, "geometry": {"type": "Point", "coordinates": [11.2757408, 46.0205636]}}, {"id": "210", "type": "Feature", "properties": {"highway": "track", "id": 30531843, "name": "", "type": "way"}, "geometry": {"type": "Point", "coordinates": [11.2151353, 46.0828948]}}, {"id": "211", "type": "Feature", "properties": {"highway": "track", "id": 30531846, "name": "", "type": "way"}, "geometry": {"type": "Point", "coordinates": [11.2199145, 46.0813028]}}, {"id": "212", "type": "Feature", "properties": {"highway": "track", "id": 30531848, "name": "", "type": "way"}, "geometry": {"type": "Point", "coordinates": [11.2203671, 46.0808851]}}, {"id": "213", "type": "Feature", "properties": {"highway": "path", "id": 30531852, "name": "", "type": "way"}, "geometry": {"type": "Point", "coordinates": [11.2148105, 46.0828589]}}, {"id": "214", "type": "Feature", "properties": {"highway": "track", "id": 30531854, "name": "", "type": "way"}, "geometry": {"type": "Point", "coordinates": [11.2130045, 46.0796116]}}, {"id": "215", "type": "Feature", "properties": {"highway": "track", "id": 30532945, "name": "Via dei Gregiati", "type": "way"}, "geometry": {"type": "Point", "coordinates": [11.2140636, 46.0879036]}}, {"id": "216", "type": "Feature", "properties": {"highway": "track", "id": 30532947, "name": "Via Palustela", "type": "way"}, "geometry": {"type": "Point", "coordinates": [11.2211229, 46.084163]}}, {"id": "217", "type": "Feature", "properties": {"highway": "residential", "id": 30538750, "name": "Via della Cagnana", "type": "way"}, "geometry": {"type": "Point", "coordinates": [11.2151457, 46.0901352]}}, {"id": "218", "type": "Feature", "properties": {"highway": "track", "id": 30538752, "name": "Via della Cagnana", "type": "way"}, "geometry": {"type": "Point", "coordinates": [11.2186749, 46.0861096]}}, {"id": "219", "type": "Feature", "properties": {"highway": "residential", "id": 30539336, "name": "Via a Iol", "type": "way"}, "geometry": {"type": "Point", "coordinates": [11.2137937, 46.0860275]}}, {"id": "220", "type": "Feature", "properties": {"highway": "track", "id": 30539338, "name": "Via dele Fontanele", "type": "way"}, "geometry": {"type": "Point", "coordinates": [11.2113644, 46.0876804]}}, {"id": "221", "type": "Feature", "properties": {"highway": "track", "id": 30541278, "name": "", "type": "way"}, "geometry": {"type": "Point", "coordinates": [11.2109577, 46.0824846]}}, {"id": "222", "type": "Feature", "properties": {"highway": "unclassified", "id": 31107770, "name": "Via ai Pizedi", "type": "way"}, "geometry": {"type": "Point", "coordinates": [11.2545587, 46.0404878]}}, {"id": "223", "type": "Feature", "properties": {"highway": "service", "id": 31134621, "name": "", "type": "way"}, "geometry": {"type": "Point", "coordinates": [11.2374658, 46.0610385]}}, {"id": "224", "type": "Feature", "properties": {"highway": "service", "id": 31134622, "name": "", "type": "way"}, "geometry": {"type": "Point", "coordinates": [11.2376496, 46.0611203]}}, {"id": "225", "type": "Feature", "properties": {"highway": "tertiary", "id": 31873197, "name": "Via per la Panarotta", "type": "way"}, "geometry": {"type": "Point", "coordinates": [11.2535461, 46.0494747]}}, {"id": "226", "type": "Feature", "properties": {"highway": "unclassified", "id": 32598304, "name": "Via Eduino Maoro", "type": "way"}, "geometry": {"type": "Point", "coordinates": [11.2280101, 46.064151]}}, {"id": "227", "type": "Feature", "properties": {"highway": "tertiary", "id": 32598305, "name": "Via Cimirlo", "type": "way"}, "geometry": {"type": "Point", "coordinates": [11.2211715, 46.064598]}}, {"id": "228", "type": "Feature", "properties": {"highway": "secondary", "id": 33471471, "name": "Via Margherita Hack", "type": "way"}, "geometry": {"type": "Point", "coordinates": [11.2345398, 46.0519811]}}, {"id": "229", "type": "Feature", "properties": {"highway": "service", "id": 33471474, "name": "Piazza Stazione", "type": "way"}, "geometry": {"type": "Point", "coordinates": [11.2328096, 46.0627807]}}, {"id": "230", "type": "Feature", "properties": {"highway": "service", "id": 33471475, "name": "", "type": "way"}, "geometry": {"type": "Point", "coordinates": [11.2322386, 46.0634998]}}, {"id": "231", "type": "Feature", "properties": {"highway": "path", "id": 34320831, "name": "", "type": "way"}, "geometry": {"type": "Point", "coordinates": [11.2493241, 46.0591867]}}, {"id": "232", "type": "Feature", "properties": {"highway": "unclassified", "id": 34865549, "name": "", "type": "way"}, "geometry": {"type": "Point", "coordinates": [11.2340383, 46.0800931]}}, {"id": "233", "type": "Feature", "properties": {"highway": "secondary", "id": 35100546, "name": "", "type": "way"}, "geometry": {"type": "Point", "coordinates": [11.2794203, 46.0882259]}}, {"id": "234", "type": "Feature", "properties": {"highway": "secondary", "id": 35100548, "name": "", "type": "way"}, "geometry": {"type": "Point", "coordinates": [11.2780961, 46.0848622]}}, {"id": "235", "type": "Feature", "properties": {"highway": "secondary", "id": 35100549, "name": "", "type": "way"}, "geometry": {"type": "Point", "coordinates": [11.275073, 46.0769]}}, {"id": "236", "type": "Feature", "properties": {"highway": "secondary", "id": 35100550, "name": "", "type": "way"}, "geometry": {"type": "Point", "coordinates": [11.265244, 46.0732962]}}, {"id": "237", "type": "Feature", "properties": {"highway": "secondary", "id": 35100551, "name": "", "type": "way"}, "geometry": {"type": "Point", "coordinates": [11.2695768, 46.0762582]}}, {"id": "238", "type": "Feature", "properties": {"highway": "secondary", "id": 35100552, "name": "Via Lagorai", "type": "way"}, "geometry": {"type": "Point", "coordinates": [11.2594651, 46.0714829]}}, {"id": "239", "type": "Feature", "properties": {"highway": "secondary", "id": 35100553, "name": "Via Padova", "type": "way"}, "geometry": {"type": "Point", "coordinates": [11.2421853, 46.0540624]}}, {"id": "240", "type": "Feature", "properties": {"highway": "secondary", "id": 35100554, "name": "Via Margherita Hack", "type": "way"}, "geometry": {"type": "Point", "coordinates": [11.2345398, 46.0519811]}}, {"id": "241", "type": "Feature", "properties": {"highway": "secondary", "id": 35209858, "name": "Via di Castel Rocca", "type": "way"}, "geometry": {"type": "Point", "coordinates": [11.2127966, 46.0886051]}}, {"id": "242", "type": "Feature", "properties": {"highway": "tertiary", "id": 35209975, "name": "Via Rosmini", "type": "way"}, "geometry": {"type": "Point", "coordinates": [11.2296396, 46.0611387]}}, {"id": "243", "type": "Feature", "properties": {"highway": "tertiary", "id": 35209976, "name": "Via S. Martino", "type": "way"}, "geometry": {"type": "Point", "coordinates": [11.2205964, 46.0614654]}}, {"id": "244", "type": "Feature", "properties": {"highway": "unclassified", "id": 35209979, "name": "", "type": "way"}, "geometry": {"type": "Point", "coordinates": [11.2278426, 46.0598482]}}, {"id": "245", "type": "Feature", "properties": {"highway": "secondary", "id": 35473821, "name": "", "type": "way"}, "geometry": {"type": "Point", "coordinates": [11.2585524, 46.0402202]}}, {"id": "246", "type": "Feature", "properties": {"highway": "secondary", "id": 35473822, "name": "", "type": "way"}, "geometry": {"type": "Point", "coordinates": [11.2599895, 46.0353056]}}, {"id": "247", "type": "Feature", "properties": {"highway": "cycleway", "id": 35577445, "name": "", "type": "way"}, "geometry": {"type": "Point", "coordinates": [11.2370631, 46.05543]}}, {"id": "248", "type": "Feature", "properties": {"highway": "service", "id": 35577449, "name": "", "type": "way"}, "geometry": {"type": "Point", "coordinates": [11.2473495, 46.0357485]}}, {"id": "249", "type": "Feature", "properties": {"highway": "residential", "id": 35577450, "name": "", "type": "way"}, "geometry": {"type": "Point", "coordinates": [11.2512353, 46.0421085]}}, {"id": "250", "type": "Feature", "properties": {"highway": "track", "id": 35577451, "name": "", "type": "way"}, "geometry": {"type": "Point", "coordinates": [11.2486539, 46.037062]}}, {"id": "251", "type": "Feature", "properties": {"highway": "track", "id": 35577452, "name": "", "type": "way"}, "geometry": {"type": "Point", "coordinates": [11.2512792, 46.0395157]}}, {"id": "252", "type": "Feature", "properties": {"highway": "unclassified", "id": 35577453, "name": "Via Ol", "type": "way"}, "geometry": {"type": "Point", "coordinates": [11.2527813, 46.0511044]}}, {"id": "253", "type": "Feature", "properties": {"highway": "unclassified", "id": 35587576, "name": "Via dei Pastori", "type": "way"}, "geometry": {"type": "Point", "coordinates": [11.2399233, 46.073495]}}, {"id": "254", "type": "Feature", "properties": {"highway": "residential", "id": 35587577, "name": "Salita ai Montesei", "type": "way"}, "geometry": {"type": "Point", "coordinates": [11.2403645, 46.0736239]}}, {"id": "255", "type": "Feature", "properties": {"highway": "track", "id": 35587578, "name": "", "type": "way"}, "geometry": {"type": "Point", "coordinates": [11.2406414, 46.0753316]}}, {"id": "256", "type": "Feature", "properties": {"highway": "track", "id": 35587579, "name": "", "type": "way"}, "geometry": {"type": "Point", "coordinates": [11.2386199, 46.0787925]}}, {"id": "257", "type": "Feature", "properties": {"highway": "path", "id": 35587580, "name": "", "type": "way"}, "geometry": {"type": "Point", "coordinates": [11.2417228, 46.0757207]}}, {"id": "258", "type": "Feature", "properties": {"highway": "track", "id": 35587581, "name": "", "type": "way"}, "geometry": {"type": "Point", "coordinates": [11.2416173, 46.075667]}}, {"id": "259", "type": "Feature", "properties": {"highway": "path", "id": 35587582, "name": "", "type": "way"}, "geometry": {"type": "Point", "coordinates": [11.2397766, 46.0748641]}}, {"id": "260", "type": "Feature", "properties": {"highway": "unclassified", "id": 35587583, "name": "", "type": "way"}, "geometry": {"type": "Point", "coordinates": [11.24724, 46.0747038]}}, {"id": "261", "type": "Feature", "properties": {"highway": "track", "id": 35587584, "name": "", "type": "way"}, "geometry": {"type": "Point", "coordinates": [11.2459568, 46.0756658]}}, {"id": "262", "type": "Feature", "properties": {"highway": "path", "id": 35587585, "name": "", "type": "way"}, "geometry": {"type": "Point", "coordinates": [11.2435922, 46.0750089]}}, {"id": "263", "type": "Feature", "properties": {"highway": "path", "id": 35587586, "name": "", "type": "way"}, "geometry": {"type": "Point", "coordinates": [11.2461967, 46.0749929]}}, {"id": "264", "type": "Feature", "properties": {"highway": "residential", "id": 35588726, "name": "Via Alta", "type": "way"}, "geometry": {"type": "Point", "coordinates": [11.2527638, 46.0754069]}}, {"id": "265", "type": "Feature", "properties": {"highway": "unclassified", "id": 35588727, "name": "Via dei Caldonazzi", "type": "way"}, "geometry": {"type": "Point", "coordinates": [11.2495521, 46.0752088]}}, {"id": "266", "type": "Feature", "properties": {"highway": "unclassified", "id": 35588728, "name": "Via della Piazzola", "type": "way"}, "geometry": {"type": "Point", "coordinates": [11.251248, 46.0751891]}}, {"id": "267", "type": "Feature", "properties": {"highway": "unclassified", "id": 35588729, "name": "Piazza di San Giovanni", "type": "way"}, "geometry": {"type": "Point", "coordinates": [11.2517507, 46.0752788]}}, {"id": "268", "type": "Feature", "properties": {"highway": "track", "id": 35588730, "name": "Via dei Salesadi", "type": "way"}, "geometry": {"type": "Point", "coordinates": [11.2527262, 46.0757356]}}, {"id": "269", "type": "Feature", "properties": {"highway": "track", "id": 35588731, "name": "", "type": "way"}, "geometry": {"type": "Point", "coordinates": [11.2518088, 46.0765783]}}, {"id": "270", "type": "Feature", "properties": {"highway": "unclassified", "id": 35588732, "name": "", "type": "way"}, "geometry": {"type": "Point", "coordinates": [11.2534063, 46.0777683]}}, {"id": "271", "type": "Feature", "properties": {"highway": "path", "id": 35588734, "name": "", "type": "way"}, "geometry": {"type": "Point", "coordinates": [11.2367808, 46.0847056]}}, {"id": "272", "type": "Feature", "properties": {"highway": "track", "id": 35588735, "name": "", "type": "way"}, "geometry": {"type": "Point", "coordinates": [11.2375021, 46.092917]}}, {"id": "273", "type": "Feature", "properties": {"highway": "footway", "id": 35588736, "name": "", "type": "way"}, "geometry": {"type": "Point", "coordinates": [11.2361052, 46.0956185]}}, {"id": "274", "type": "Feature", "properties": {"highway": "track", "id": 35588737, "name": "", "type": "way"}, "geometry": {"type": "Point", "coordinates": [11.2373026, 46.0843221]}}, {"id": "275", "type": "Feature", "properties": {"highway": "track", "id": 35588738, "name": "", "type": "way"}, "geometry": {"type": "Point", "coordinates": [11.2357801, 46.0847489]}}, {"id": "276", "type": "Feature", "properties": {"highway": "path", "id": 35588740, "name": "", "type": "way"}, "geometry": {"type": "Point", "coordinates": [11.2372456, 46.0840162]}}, {"id": "277", "type": "Feature", "properties": {"highway": "path", "id": 35588741, "name": "", "type": "way"}, "geometry": {"type": "Point", "coordinates": [11.2378006, 46.0819968]}}, {"id": "278", "type": "Feature", "properties": {"highway": "steps", "id": 35588742, "name": "", "type": "way"}, "geometry": {"type": "Point", "coordinates": [11.2377725, 46.0817977]}}, {"id": "279", "type": "Feature", "properties": {"highway": "unclassified", "id": 35591973, "name": "", "type": "way"}, "geometry": {"type": "Point", "coordinates": [11.2531058, 46.0658322]}}, {"id": "280", "type": "Feature", "properties": {"highway": "residential", "id": 35592234, "name": "Via al Compet", "type": "way"}, "geometry": {"type": "Point", "coordinates": [11.243188, 46.0538667]}}, {"id": "281", "type": "Feature", "properties": {"highway": "residential", "id": 35594804, "name": "", "type": "way"}, "geometry": {"type": "Point", "coordinates": [11.251016, 46.0425463]}}, {"id": "282", "type": "Feature", "properties": {"highway": "residential", "id": 35594805, "name": "", "type": "way"}, "geometry": {"type": "Point", "coordinates": [11.2509903, 46.042308]}}, {"id": "283", "type": "Feature", "properties": {"highway": "residential", "id": 35594849, "name": "Localit\u00e0 Zava", "type": "way"}, "geometry": {"type": "Point", "coordinates": [11.2480291, 46.0395614]}}, {"id": "284", "type": "Feature", "properties": {"highway": "residential", "id": 35595039, "name": "Via Osteria del Vitti", "type": "way"}, "geometry": {"type": "Point", "coordinates": [11.2494684, 46.0516943]}}, {"id": "285", "type": "Feature", "properties": {"highway": "residential", "id": 35595485, "name": "Via Dos dei Masetti", "type": "way"}, "geometry": {"type": "Point", "coordinates": [11.24971, 46.0507327]}}, {"id": "286", "type": "Feature", "properties": {"highway": "residential", "id": 35595553, "name": "", "type": "way"}, "geometry": {"type": "Point", "coordinates": [11.2469632, 46.0437617]}}, {"id": "287", "type": "Feature", "properties": {"highway": "residential", "id": 35595578, "name": "Localit\u00e0 Zava", "type": "way"}, "geometry": {"type": "Point", "coordinates": [11.2483554, 46.043742]}}, {"id": "288", "type": "Feature", "properties": {"highway": "residential", "id": 35595628, "name": "Via della Chiesa", "type": "way"}, "geometry": {"type": "Point", "coordinates": [11.2484668, 46.0519706]}}, {"id": "289", "type": "Feature", "properties": {"highway": "residential", "id": 35595739, "name": "Via dei Pinteroti", "type": "way"}, "geometry": {"type": "Point", "coordinates": [11.2474369, 46.0508448]}}, {"id": "290", "type": "Feature", "properties": {"highway": "residential", "id": 35595745, "name": "Via dei Pinteroti", "type": "way"}, "geometry": {"type": "Point", "coordinates": [11.2480515, 46.0512789]}}, {"id": "291", "type": "Feature", "properties": {"highway": "residential", "id": 35595775, "name": "Via ai Tel\u00f2ti", "type": "way"}, "geometry": {"type": "Point", "coordinates": [11.2484065, 46.0490953]}}, {"id": "292", "type": "Feature", "properties": {"highway": "residential", "id": 35595923, "name": "Via al Compet", "type": "way"}, "geometry": {"type": "Point", "coordinates": [11.2405931, 46.0550589]}}, {"id": "293", "type": "Feature", "properties": {"highway": "residential", "id": 35596332, "name": "Via Giulio Rizzi", "type": "way"}, "geometry": {"type": "Point", "coordinates": [11.2408441, 46.0579737]}}, {"id": "294", "type": "Feature", "properties": {"highway": "footway", "id": 35596349, "name": "Vicolo Castello", "type": "way"}, "geometry": {"type": "Point", "coordinates": [11.2415657, 46.0590881]}}, {"id": "295", "type": "Feature", "properties": {"highway": "residential", "id": 35596626, "name": "Via Tegazzo", "type": "way"}, "geometry": {"type": "Point", "coordinates": [11.2434973, 46.0603272]}}, {"id": "296", "type": "Feature", "properties": {"highway": "residential", "id": 35596689, "name": "Via alla Croce", "type": "way"}, "geometry": {"type": "Point", "coordinates": [11.2398759, 46.0568261]}}, {"id": "297", "type": "Feature", "properties": {"highway": "track", "id": 35596771, "name": "maso Valderban", "type": "way"}, "geometry": {"type": "Point", "coordinates": [11.2471395, 46.0475201]}}, {"id": "298", "type": "Feature", "properties": {"highway": "tertiary", "id": 35597147, "name": "Strada Provinciale 12 di Vignola e Panarotta", "type": "way"}, "geometry": {"type": "Point", "coordinates": [11.274797, 46.0434059]}}, {"id": "299", "type": "Feature", "properties": {"highway": "tertiary", "id": 35597148, "name": "Strada Provinciale 12 di Vignola e Panarotta", "type": "way"}, "geometry": {"type": "Point", "coordinates": [11.2640494, 46.0424942]}}, {"id": "300", "type": "Feature", "properties": {"highway": "unclassified", "id": 35604141, "name": "Via Rio Mingh\u00e9t", "type": "way"}, "geometry": {"type": "Point", "coordinates": [11.2763332, 46.0806836]}}, {"id": "301", "type": "Feature", "properties": {"highway": "pedestrian", "id": 35670813, "name": "Piazza Giovanni Serra", "type": "way"}, "geometry": {"type": "Point", "coordinates": [11.2391019, 46.0604207]}}, {"id": "302", "type": "Feature", "properties": {"highway": "track", "id": 35670815, "name": "", "type": "way"}, "geometry": {"type": "Point", "coordinates": [11.2321288, 46.0577093]}}, {"id": "303", "type": "Feature", "properties": {"highway": "residential", "id": 35670816, "name": "", "type": "way"}, "geometry": {"type": "Point", "coordinates": [11.230535, 46.0595058]}}, {"id": "304", "type": "Feature", "properties": {"highway": "residential", "id": 35670817, "name": "", "type": "way"}, "geometry": {"type": "Point", "coordinates": [11.2344534, 46.0549852]}}, {"id": "305", "type": "Feature", "properties": {"highway": "track", "id": 35670818, "name": "", "type": "way"}, "geometry": {"type": "Point", "coordinates": [11.2314299, 46.0421981]}}, {"id": "306", "type": "Feature", "properties": {"highway": "residential", "id": 35670820, "name": "", "type": "way"}, "geometry": {"type": "Point", "coordinates": [11.2288104, 46.0407176]}}, {"id": "307", "type": "Feature", "properties": {"highway": "residential", "id": 35670821, "name": "Via delle Val\u00e9ne", "type": "way"}, "geometry": {"type": "Point", "coordinates": [11.2263354, 46.0391632]}}, {"id": "308", "type": "Feature", "properties": {"highway": "track", "id": 35670822, "name": "", "type": "way"}, "geometry": {"type": "Point", "coordinates": [11.2260303, 46.0360413]}}, {"id": "309", "type": "Feature", "properties": {"highway": "footway", "id": 35670823, "name": "", "type": "way"}, "geometry": {"type": "Point", "coordinates": [11.2261671, 46.0360051]}}, {"id": "310", "type": "Feature", "properties": {"highway": "residential", "id": 35670824, "name": "Via al maso Pianezza", "type": "way"}, "geometry": {"type": "Point", "coordinates": [11.2272462, 46.0319953]}}, {"id": "311", "type": "Feature", "properties": {"highway": "service", "id": 35670826, "name": "", "type": "way"}, "geometry": {"type": "Point", "coordinates": [11.2261063, 46.0316413]}}, {"id": "312", "type": "Feature", "properties": {"highway": "residential", "id": 35670827, "name": "Via al maso Pianezza", "type": "way"}, "geometry": {"type": "Point", "coordinates": [11.2277462, 46.0311045]}}, {"id": "313", "type": "Feature", "properties": {"highway": "residential", "id": 35670828, "name": "Strada per Masi Alti", "type": "way"}, "geometry": {"type": "Point", "coordinates": [11.2228654, 46.0195686]}}, {"id": "314", "type": "Feature", "properties": {"highway": "residential", "id": 35670833, "name": "Via dei Minatori", "type": "way"}, "geometry": {"type": "Point", "coordinates": [11.228762, 46.0311689]}}, {"id": "315", "type": "Feature", "properties": {"highway": "service", "id": 35670834, "name": "", "type": "way"}, "geometry": {"type": "Point", "coordinates": [11.2282658, 46.0291301]}}, {"id": "316", "type": "Feature", "properties": {"highway": "residential", "id": 35670835, "name": "Via delle Case nuove", "type": "way"}, "geometry": {"type": "Point", "coordinates": [11.2266191, 46.0294804]}}, {"id": "317", "type": "Feature", "properties": {"highway": "cycleway", "id": 35671123, "name": "", "type": "way"}, "geometry": {"type": "Point", "coordinates": [11.2322746, 46.0633772]}}, {"id": "318", "type": "Feature", "properties": {"highway": "residential", "id": 35671124, "name": "Via Amstetten", "type": "way"}, "geometry": {"type": "Point", "coordinates": [11.2298295, 46.0663823]}}, {"id": "319", "type": "Feature", "properties": {"highway": "unclassified", "id": 35673472, "name": "Frazione San Vito", "type": "way"}, "geometry": {"type": "Point", "coordinates": [11.220289, 46.0315169]}}, {"id": "320", "type": "Feature", "properties": {"highway": "residential", "id": 35673473, "name": "Via dei nogaroni", "type": "way"}, "geometry": {"type": "Point", "coordinates": [11.2213371, 46.0347751]}}, {"id": "321", "type": "Feature", "properties": {"highway": "residential", "id": 35673474, "name": "Via Al Mas Dei Faiti", "type": "way"}, "geometry": {"type": "Point", "coordinates": [11.2203973, 46.0342025]}}, {"id": "322", "type": "Feature", "properties": {"highway": "residential", "id": 35673475, "name": "Via Al Mas Dei Faiti", "type": "way"}, "geometry": {"type": "Point", "coordinates": [11.21969, 46.0352185]}}, {"id": "323", "type": "Feature", "properties": {"highway": "unclassified", "id": 35673476, "name": "Via delle B\u00eczere", "type": "way"}, "geometry": {"type": "Point", "coordinates": [11.2213861, 46.0479159]}}, {"id": "324", "type": "Feature", "properties": {"highway": "residential", "id": 35673477, "name": "Via delle Pel\u00e8re", "type": "way"}, "geometry": {"type": "Point", "coordinates": [11.2228261, 46.0506175]}}, {"id": "325", "type": "Feature", "properties": {"highway": "unclassified", "id": 35673478, "name": "Via alla Malga", "type": "way"}, "geometry": {"type": "Point", "coordinates": [11.2214912, 46.0506564]}}, {"id": "326", "type": "Feature", "properties": {"highway": "residential", "id": 35673479, "name": "Via delle calcare", "type": "way"}, "geometry": {"type": "Point", "coordinates": [11.2188937, 46.0480081]}}, {"id": "327", "type": "Feature", "properties": {"highway": "unclassified", "id": 35673480, "name": "Via dell'asilo", "type": "way"}, "geometry": {"type": "Point", "coordinates": [11.2222477, 46.0501003]}}, {"id": "328", "type": "Feature", "properties": {"highway": "residential", "id": 35673481, "name": "Via dei Ferrari", "type": "way"}, "geometry": {"type": "Point", "coordinates": [11.222199, 46.0502994]}}, {"id": "329", "type": "Feature", "properties": {"highway": "residential", "id": 35673482, "name": "Via delle Pel\u00e8re", "type": "way"}, "geometry": {"type": "Point", "coordinates": [11.2224486, 46.0505502]}}, {"id": "330", "type": "Feature", "properties": {"highway": "track", "id": 35673483, "name": "", "type": "way"}, "geometry": {"type": "Point", "coordinates": [11.2184649, 46.0513426]}}, {"id": "331", "type": "Feature", "properties": {"highway": "residential", "id": 35673484, "name": "", "type": "way"}, "geometry": {"type": "Point", "coordinates": [11.2123381, 46.0476777]}}, {"id": "332", "type": "Feature", "properties": {"highway": "residential", "id": 35673485, "name": "", "type": "way"}, "geometry": {"type": "Point", "coordinates": [11.2121886, 46.0473236]}}, {"id": "333", "type": "Feature", "properties": {"highway": "track", "id": 35673486, "name": "", "type": "way"}, "geometry": {"type": "Point", "coordinates": [11.2122004, 46.0480002]}}, {"id": "334", "type": "Feature", "properties": {"highway": "residential", "id": 35673487, "name": "Via delle Polache", "type": "way"}, "geometry": {"type": "Point", "coordinates": [11.2207734, 46.0521649]}}, {"id": "335", "type": "Feature", "properties": {"highway": "track", "id": 35673488, "name": "", "type": "way"}, "geometry": {"type": "Point", "coordinates": [11.2185128, 46.0533647]}}, {"id": "336", "type": "Feature", "properties": {"highway": "unclassified", "id": 35673489, "name": "Via L\u00f3nga", "type": "way"}, "geometry": {"type": "Point", "coordinates": [11.2214174, 46.0547257]}}, {"id": "337", "type": "Feature", "properties": {"highway": "residential", "id": 35673490, "name": "Piazza di S. Martino", "type": "way"}, "geometry": {"type": "Point", "coordinates": [11.2140132, 46.0581718]}}, {"id": "338", "type": "Feature", "properties": {"highway": "unclassified", "id": 35673491, "name": "Via della Calcara", "type": "way"}, "geometry": {"type": "Point", "coordinates": [11.2177655, 46.0585063]}}, {"id": "339", "type": "Feature", "properties": {"highway": "residential", "id": 35673492, "name": "", "type": "way"}, "geometry": {"type": "Point", "coordinates": [11.2167533, 46.0584404]}}, {"id": "340", "type": "Feature", "properties": {"highway": "residential", "id": 35673493, "name": "Via dei Lozeri", "type": "way"}, "geometry": {"type": "Point", "coordinates": [11.2150207, 46.0582586]}}, {"id": "341", "type": "Feature", "properties": {"highway": "residential", "id": 35673494, "name": "", "type": "way"}, "geometry": {"type": "Point", "coordinates": [11.2147048, 46.0585842]}}, {"id": "342", "type": "Feature", "properties": {"highway": "residential", "id": 35673495, "name": "Via don Modesto Piva", "type": "way"}, "geometry": {"type": "Point", "coordinates": [11.2136686, 46.0582128]}}, {"id": "343", "type": "Feature", "properties": {"highway": "residential", "id": 35673496, "name": "", "type": "way"}, "geometry": {"type": "Point", "coordinates": [11.2130635, 46.0583734]}}, {"id": "344", "type": "Feature", "properties": {"highway": "residential", "id": 35673497, "name": "Via dei Lozeri", "type": "way"}, "geometry": {"type": "Point", "coordinates": [11.2155528, 46.0582139]}}, {"id": "345", "type": "Feature", "properties": {"highway": "residential", "id": 35673498, "name": "Via della Calcara", "type": "way"}, "geometry": {"type": "Point", "coordinates": [11.2155448, 46.058814]}}, {"id": "346", "type": "Feature", "properties": {"highway": "unclassified", "id": 35673660, "name": "Via delle Sb\u00e8rnie", "type": "way"}, "geometry": {"type": "Point", "coordinates": [11.2192669, 46.0587864]}}, {"id": "347", "type": "Feature", "properties": {"highway": "residential", "id": 35673661, "name": "Via Le Fornaci", "type": "way"}, "geometry": {"type": "Point", "coordinates": [11.2211879, 46.0633199]}}, {"id": "348", "type": "Feature", "properties": {"highway": "residential", "id": 35673877, "name": "Via Monte Cristallo", "type": "way"}, "geometry": {"type": "Point", "coordinates": [11.2390646, 46.0640377]}}, {"id": "349", "type": "Feature", "properties": {"highway": "residential", "id": 35673878, "name": "Via dei Prati", "type": "way"}, "geometry": {"type": "Point", "coordinates": [11.2367554, 46.06524]}}, {"id": "350", "type": "Feature", "properties": {"highway": "residential", "id": 35673879, "name": "Viale Petri", "type": "way"}, "geometry": {"type": "Point", "coordinates": [11.2384099, 46.0629235]}}, {"id": "351", "type": "Feature", "properties": {"highway": "unclassified", "id": 35710258, "name": "Via L\u00f3nga", "type": "way"}, "geometry": {"type": "Point", "coordinates": [11.2237844, 46.052399]}}, {"id": "352", "type": "Feature", "properties": {"highway": "residential", "id": 35710259, "name": "", "type": "way"}, "geometry": {"type": "Point", "coordinates": [11.2255337, 46.0645515]}}, {"id": "353", "type": "Feature", "properties": {"highway": "footway", "id": 35710260, "name": "", "type": "way"}, "geometry": {"type": "Point", "coordinates": [11.2267292, 46.0638212]}}, {"id": "354", "type": "Feature", "properties": {"highway": "unclassified", "id": 35710261, "name": "Via Campilonghi", "type": "way"}, "geometry": {"type": "Point", "coordinates": [11.2257202, 46.0661925]}}, {"id": "355", "type": "Feature", "properties": {"highway": "unclassified", "id": 35710262, "name": "", "type": "way"}, "geometry": {"type": "Point", "coordinates": [11.2186119, 46.0657561]}}, {"id": "356", "type": "Feature", "properties": {"highway": "track", "id": 35710265, "name": "", "type": "way"}, "geometry": {"type": "Point", "coordinates": [11.225846, 46.0655097]}}, {"id": "357", "type": "Feature", "properties": {"highway": "service", "id": 35710266, "name": "", "type": "way"}, "geometry": {"type": "Point", "coordinates": [11.2273167, 46.0660301]}}, {"id": "358", "type": "Feature", "properties": {"highway": "residential", "id": 35710267, "name": "Via Roen", "type": "way"}, "geometry": {"type": "Point", "coordinates": [11.2276554, 46.0645826]}}, {"id": "359", "type": "Feature", "properties": {"highway": "residential", "id": 35710268, "name": "", "type": "way"}, "geometry": {"type": "Point", "coordinates": [11.2265846, 46.064625]}}, {"id": "360", "type": "Feature", "properties": {"highway": "unclassified", "id": 35710269, "name": "Via Celva", "type": "way"}, "geometry": {"type": "Point", "coordinates": [11.2310642, 46.063165]}}, {"id": "361", "type": "Feature", "properties": {"highway": "service", "id": 35710270, "name": "", "type": "way"}, "geometry": {"type": "Point", "coordinates": [11.2317732, 46.0624421]}}, {"id": "362", "type": "Feature", "properties": {"highway": "unclassified", "id": 35768062, "name": "Via del Salesa Lonch", "type": "way"}, "geometry": {"type": "Point", "coordinates": [11.2398796, 46.073558]}}, {"id": "363", "type": "Feature", "properties": {"highway": "unclassified", "id": 35777696, "name": "Via di P\u00f2rtolo di sopra", "type": "way"}, "geometry": {"type": "Point", "coordinates": [11.278162, 46.0811607]}}, {"id": "364", "type": "Feature", "properties": {"highway": "unclassified", "id": 35777697, "name": "", "type": "way"}, "geometry": {"type": "Point", "coordinates": [11.2775699, 46.080971]}}, {"id": "365", "type": "Feature", "properties": {"highway": "unclassified", "id": 35777698, "name": "", "type": "way"}, "geometry": {"type": "Point", "coordinates": [11.2771281, 46.0805808]}}, {"id": "366", "type": "Feature", "properties": {"highway": "residential", "id": 35777699, "name": "Via dei Piazzi", "type": "way"}, "geometry": {"type": "Point", "coordinates": [11.2777482, 46.0801784]}}, {"id": "367", "type": "Feature", "properties": {"highway": "unclassified", "id": 35777705, "name": "Via di P\u00f2rtolo di Sotto", "type": "way"}, "geometry": {"type": "Point", "coordinates": [11.2749964, 46.0807129]}}, {"id": "368", "type": "Feature", "properties": {"highway": "track", "id": 35777706, "name": "", "type": "way"}, "geometry": {"type": "Point", "coordinates": [11.2738289, 46.0787229]}}, {"id": "369", "type": "Feature", "properties": {"highway": "unclassified", "id": 35777707, "name": "Via delle Scuole", "type": "way"}, "geometry": {"type": "Point", "coordinates": [11.2757853, 46.080067]}}, {"id": "370", "type": "Feature", "properties": {"highway": "service", "id": 35838190, "name": "", "type": "way"}, "geometry": {"type": "Point", "coordinates": [11.2774914, 46.0786176]}}, {"id": "371", "type": "Feature", "properties": {"highway": "unclassified", "id": 35838197, "name": "", "type": "way"}, "geometry": {"type": "Point", "coordinates": [11.2773924, 46.0797002]}}, {"id": "372", "type": "Feature", "properties": {"highway": "unclassified", "id": 35838198, "name": "Via di P\u00f2rtolo di sopra", "type": "way"}, "geometry": {"type": "Point", "coordinates": [11.278845, 46.0813622]}}, {"id": "373", "type": "Feature", "properties": {"highway": "service", "id": 35838199, "name": "", "type": "way"}, "geometry": {"type": "Point", "coordinates": [11.2789081, 46.0816827]}}, {"id": "374", "type": "Feature", "properties": {"highway": "unclassified", "id": 35838200, "name": "", "type": "way"}, "geometry": {"type": "Point", "coordinates": [11.2772787, 46.0806957]}}, {"id": "375", "type": "Feature", "properties": {"highway": "unclassified", "id": 35838202, "name": "Via di P\u00f2rtolo di Sotto", "type": "way"}, "geometry": {"type": "Point", "coordinates": [11.2747745, 46.0802458]}}, {"id": "376", "type": "Feature", "properties": {"highway": "residential", "id": 35838204, "name": "", "type": "way"}, "geometry": {"type": "Point", "coordinates": [11.2748472, 46.0816158]}}, {"id": "377", "type": "Feature", "properties": {"highway": "residential", "id": 35838205, "name": "", "type": "way"}, "geometry": {"type": "Point", "coordinates": [11.2743429, 46.0795222]}}, {"id": "378", "type": "Feature", "properties": {"highway": "path", "id": 35838290, "name": "", "type": "way"}, "geometry": {"type": "Point", "coordinates": [11.2494752, 46.0592879]}}, {"id": "379", "type": "Feature", "properties": {"highway": "unclassified", "id": 36851176, "name": "Via dell'Oton", "type": "way"}, "geometry": {"type": "Point", "coordinates": [11.2569552, 46.0688518]}}, {"id": "380", "type": "Feature", "properties": {"highway": "unclassified", "id": 36851417, "name": "", "type": "way"}, "geometry": {"type": "Point", "coordinates": [11.254142, 46.070298]}}, {"id": "381", "type": "Feature", "properties": {"highway": "primary_link", "id": 36958800, "name": "", "type": "way"}, "geometry": {"type": "Point", "coordinates": [11.2359802, 46.0458483]}}, {"id": "382", "type": "Feature", "properties": {"highway": "primary_link", "id": 36958801, "name": "", "type": "way"}, "geometry": {"type": "Point", "coordinates": [11.2364055, 46.045712]}}, {"id": "383", "type": "Feature", "properties": {"highway": "primary_link", "id": 36958802, "name": "Strada Statale 47 della Valsugana", "type": "way"}, "geometry": {"type": "Point", "coordinates": [11.2356099, 46.0436665]}}, {"id": "384", "type": "Feature", "properties": {"highway": "secondary", "id": 37181568, "name": "", "type": "way"}, "geometry": {"type": "Point", "coordinates": [11.2266396, 46.0669479]}}, {"id": "385", "type": "Feature", "properties": {"highway": "secondary", "id": 37181569, "name": "", "type": "way"}, "geometry": {"type": "Point", "coordinates": [11.2265787, 46.067093]}}, {"id": "386", "type": "Feature", "properties": {"highway": "secondary", "id": 37181570, "name": "", "type": "way"}, "geometry": {"type": "Point", "coordinates": [11.2263511, 46.0673965]}}, {"id": "387", "type": "Feature", "properties": {"highway": "secondary", "id": 37181571, "name": "Viale Dante", "type": "way"}, "geometry": {"type": "Point", "coordinates": [11.2255661, 46.0678184]}}, {"id": "388", "type": "Feature", "properties": {"highway": "secondary", "id": 37181818, "name": "", "type": "way"}, "geometry": {"type": "Point", "coordinates": [11.2373172, 46.0618437]}}, {"id": "389", "type": "Feature", "properties": {"highway": "secondary", "id": 37181819, "name": "", "type": "way"}, "geometry": {"type": "Point", "coordinates": [11.2373583, 46.0618121]}}, {"id": "390", "type": "Feature", "properties": {"highway": "secondary", "id": 37181820, "name": "", "type": "way"}, "geometry": {"type": "Point", "coordinates": [11.2369131, 46.0618548]}}, {"id": "391", "type": "Feature", "properties": {"highway": "secondary", "id": 37181821, "name": "", "type": "way"}, "geometry": {"type": "Point", "coordinates": [11.2368553, 46.0617957]}}, {"id": "392", "type": "Feature", "properties": {"highway": "secondary", "id": 37181822, "name": "", "type": "way"}, "geometry": {"type": "Point", "coordinates": [11.2372403, 46.0615202]}}, {"id": "393", "type": "Feature", "properties": {"highway": "secondary", "id": 37181823, "name": "", "type": "way"}, "geometry": {"type": "Point", "coordinates": [11.2371392, 46.0615109]}}, {"id": "394", "type": "Feature", "properties": {"highway": "residential", "id": 37190777, "name": "Via di Mezzo Lago", "type": "way"}, "geometry": {"type": "Point", "coordinates": [11.23074, 46.0253549]}}, {"id": "395", "type": "Feature", "properties": {"highway": "cycleway", "id": 37190778, "name": "Ciclabile della Valsugana", "type": "way"}, "geometry": {"type": "Point", "coordinates": [11.2332555, 46.0175852]}}, {"id": "396", "type": "Feature", "properties": {"highway": "service", "id": 37868468, "name": "", "type": "way"}, "geometry": {"type": "Point", "coordinates": [11.221244, 46.0700296]}}, {"id": "397", "type": "Feature", "properties": {"highway": "secondary", "id": 37868803, "name": "Viale Venezia", "type": "way"}, "geometry": {"type": "Point", "coordinates": [11.2371404, 46.0575421]}}, {"id": "398", "type": "Feature", "properties": {"highway": "residential", "id": 37869283, "name": "Via dei pescatori", "type": "way"}, "geometry": {"type": "Point", "coordinates": [11.2376481, 46.0391614]}}, {"id": "399", "type": "Feature", "properties": {"highway": "unclassified", "id": 38610103, "name": "Via Quattro Novembre", "type": "way"}, "geometry": {"type": "Point", "coordinates": [11.2762593, 46.0771989]}}, {"id": "400", "type": "Feature", "properties": {"highway": "unclassified", "id": 38610141, "name": "Via Quattro Novembre", "type": "way"}, "geometry": {"type": "Point", "coordinates": [11.2777947, 46.0778289]}}, {"id": "401", "type": "Feature", "properties": {"highway": "unclassified", "id": 38610287, "name": "", "type": "way"}, "geometry": {"type": "Point", "coordinates": [11.2780439, 46.0785955]}}, {"id": "402", "type": "Feature", "properties": {"highway": "cycleway", "id": 38613783, "name": "", "type": "way"}, "geometry": {"type": "Point", "coordinates": [11.2778609, 46.0773012]}}, {"id": "403", "type": "Feature", "properties": {"highway": "residential", "id": 38657856, "name": "", "type": "way"}, "geometry": {"type": "Point", "coordinates": [11.2780445, 46.078163]}}, {"id": "404", "type": "Feature", "properties": {"highway": "service", "id": 38657857, "name": "", "type": "way"}, "geometry": {"type": "Point", "coordinates": [11.2792221, 46.0786497]}}, {"id": "405", "type": "Feature", "properties": {"highway": "track", "id": 38706829, "name": "", "type": "way"}, "geometry": {"type": "Point", "coordinates": [11.2821317, 46.0803609]}}, {"id": "406", "type": "Feature", "properties": {"highway": "track", "id": 38706830, "name": "guado", "type": "way"}, "geometry": {"type": "Point", "coordinates": [11.2839393, 46.0827009]}}, {"id": "407", "type": "Feature", "properties": {"highway": "unclassified", "id": 38778085, "name": "", "type": "way"}, "geometry": {"type": "Point", "coordinates": [11.277381, 46.0806572]}}, {"id": "408", "type": "Feature", "properties": {"highway": "path", "id": 39170833, "name": "", "type": "way"}, "geometry": {"type": "Point", "coordinates": [11.1899098, 46.0465063]}}, {"id": "409", "type": "Feature", "properties": {"highway": "unclassified", "id": 39213592, "name": "", "type": "way"}, "geometry": {"type": "Point", "coordinates": [11.2038661, 46.0793262]}}, {"id": "410", "type": "Feature", "properties": {"highway": "secondary", "id": 39228693, "name": "", "type": "way"}, "geometry": {"type": "Point", "coordinates": [11.275637, 46.0801023]}}, {"id": "411", "type": "Feature", "properties": {"highway": "residential", "id": 39250617, "name": "Piazza gn. Albino Petrini", "type": "way"}, "geometry": {"type": "Point", "coordinates": [11.278155, 46.0779986]}}, {"id": "412", "type": "Feature", "properties": {"highway": "residential", "id": 39250618, "name": "Via Quattro Novembre", "type": "way"}, "geometry": {"type": "Point", "coordinates": [11.2777947, 46.0778289]}}, {"id": "413", "type": "Feature", "properties": {"highway": "unclassified", "id": 39250637, "name": "", "type": "way"}, "geometry": {"type": "Point", "coordinates": [11.2791833, 46.0789156]}}, {"id": "414", "type": "Feature", "properties": {"highway": "residential", "id": 39323878, "name": "", "type": "way"}, "geometry": {"type": "Point", "coordinates": [11.2829207, 46.0791609]}}, {"id": "415", "type": "Feature", "properties": {"highway": "unclassified", "id": 39394499, "name": "Piazza S. Rocco", "type": "way"}, "geometry": {"type": "Point", "coordinates": [11.2775971, 46.0784489]}}, {"id": "416", "type": "Feature", "properties": {"highway": "residential", "id": 39394569, "name": "Via delle Sartore", "type": "way"}, "geometry": {"type": "Point", "coordinates": [11.2754196, 46.0773241]}}, {"id": "417", "type": "Feature", "properties": {"highway": "unclassified", "id": 39476355, "name": "Via Guglielmo Marconi", "type": "way"}, "geometry": {"type": "Point", "coordinates": [11.2407068, 46.0642878]}}, {"id": "418", "type": "Feature", "properties": {"highway": "residential", "id": 39478170, "name": "Vicolo delle Giarete", "type": "way"}, "geometry": {"type": "Point", "coordinates": [11.2373324, 46.0645078]}}, {"id": "419", "type": "Feature", "properties": {"highway": "unclassified", "id": 39604870, "name": "", "type": "way"}, "geometry": {"type": "Point", "coordinates": [11.2531058, 46.0658322]}}, {"id": "420", "type": "Feature", "properties": {"highway": "track", "id": 39604872, "name": "", "type": "way"}, "geometry": {"type": "Point", "coordinates": [11.2520196, 46.0636139]}}, {"id": "421", "type": "Feature", "properties": {"highway": "track", "id": 39604873, "name": "", "type": "way"}, "geometry": {"type": "Point", "coordinates": [11.2510376, 46.063403]}}, {"id": "422", "type": "Feature", "properties": {"highway": "track", "id": 39604875, "name": "", "type": "way"}, "geometry": {"type": "Point", "coordinates": [11.2468036, 46.0619365]}}, {"id": "423", "type": "Feature", "properties": {"highway": "track", "id": 39604876, "name": "", "type": "way"}, "geometry": {"type": "Point", "coordinates": [11.2505912, 46.0645841]}}, {"id": "424", "type": "Feature", "properties": {"highway": "unclassified", "id": 39607343, "name": "", "type": "way"}, "geometry": {"type": "Point", "coordinates": [11.25185, 46.0664149]}}, {"id": "425", "type": "Feature", "properties": {"highway": "unclassified", "id": 39607344, "name": "Via dei Molini", "type": "way"}, "geometry": {"type": "Point", "coordinates": [11.2558637, 46.0672585]}}, {"id": "426", "type": "Feature", "properties": {"highway": "unclassified", "id": 39607345, "name": "Via dei Molini", "type": "way"}, "geometry": {"type": "Point", "coordinates": [11.256575, 46.0680833]}}, {"id": "427", "type": "Feature", "properties": {"highway": "unclassified", "id": 39626015, "name": "Localit\u00e0 Fratte", "type": "way"}, "geometry": {"type": "Point", "coordinates": [11.2195346, 46.0723082]}}, {"id": "428", "type": "Feature", "properties": {"highway": "unclassified", "id": 39626032, "name": "", "type": "way"}, "geometry": {"type": "Point", "coordinates": [11.2273851, 46.0752076]}}, {"id": "429", "type": "Feature", "properties": {"highway": "unclassified", "id": 39626067, "name": "", "type": "way"}, "geometry": {"type": "Point", "coordinates": [11.2245556, 46.074492]}}, {"id": "430", "type": "Feature", "properties": {"highway": "unclassified", "id": 39626112, "name": "", "type": "way"}, "geometry": {"type": "Point", "coordinates": [11.2255062, 46.0736491]}}, {"id": "431", "type": "Feature", "properties": {"highway": "tertiary", "id": 39626306, "name": "Via ai Masi di Viarago", "type": "way"}, "geometry": {"type": "Point", "coordinates": [11.2656257, 46.0818707]}}, {"id": "432", "type": "Feature", "properties": {"highway": "residential", "id": 39664779, "name": "", "type": "way"}, "geometry": {"type": "Point", "coordinates": [11.2219159, 46.0713386]}}, {"id": "433", "type": "Feature", "properties": {"highway": "service", "id": 39664780, "name": "", "type": "way"}, "geometry": {"type": "Point", "coordinates": [11.2199922, 46.0738425]}}, {"id": "434", "type": "Feature", "properties": {"highway": "track", "id": 39665083, "name": "", "type": "way"}, "geometry": {"type": "Point", "coordinates": [11.2185425, 46.0773006]}}, {"id": "435", "type": "Feature", "properties": {"highway": "residential", "id": 39665785, "name": "", "type": "way"}, "geometry": {"type": "Point", "coordinates": [11.2109167, 46.0794669]}}, {"id": "436", "type": "Feature", "properties": {"highway": "service", "id": 39665939, "name": "", "type": "way"}, "geometry": {"type": "Point", "coordinates": [11.220847, 46.0753049]}}, {"id": "437", "type": "Feature", "properties": {"highway": "footway", "id": 39671498, "name": "Vicolo delle Giarete", "type": "way"}, "geometry": {"type": "Point", "coordinates": [11.2379724, 46.0646622]}}, {"id": "438", "type": "Feature", "properties": {"highway": "residential", "id": 39671499, "name": "Vicolo delle Giarete", "type": "way"}, "geometry": {"type": "Point", "coordinates": [11.2381493, 46.0646749]}}, {"id": "439", "type": "Feature", "properties": {"highway": "residential", "id": 39734602, "name": "", "type": "way"}, "geometry": {"type": "Point", "coordinates": [11.2761113, 46.0790742]}}, {"id": "440", "type": "Feature", "properties": {"highway": "secondary", "id": 39735958, "name": "Via al Dos dela Roda", "type": "way"}, "geometry": {"type": "Point", "coordinates": [11.2040659, 46.0788486]}}, {"id": "441", "type": "Feature", "properties": {"highway": "residential", "id": 39760735, "name": "Via dela Fontanela", "type": "way"}, "geometry": {"type": "Point", "coordinates": [11.2760274, 46.077458]}}, {"id": "442", "type": "Feature", "properties": {"highway": "path", "id": 39886553, "name": "", "type": "way"}, "geometry": {"type": "Point", "coordinates": [11.2666539, 46.0852137]}}, {"id": "443", "type": "Feature", "properties": {"highway": "tertiary", "id": 39886759, "name": "", "type": "way"}, "geometry": {"type": "Point", "coordinates": [11.2670693, 46.0895987]}}, {"id": "444", "type": "Feature", "properties": {"highway": "unclassified", "id": 39886766, "name": "", "type": "way"}, "geometry": {"type": "Point", "coordinates": [11.2796469, 46.0888687]}}, {"id": "445", "type": "Feature", "properties": {"highway": "tertiary", "id": 39886877, "name": "", "type": "way"}, "geometry": {"type": "Point", "coordinates": [11.2644675, 46.0927557]}}, {"id": "446", "type": "Feature", "properties": {"highway": "tertiary", "id": 39886903, "name": "", "type": "way"}, "geometry": {"type": "Point", "coordinates": [11.2629065, 46.0941351]}}, {"id": "447", "type": "Feature", "properties": {"highway": "track", "id": 39895387, "name": "", "type": "way"}, "geometry": {"type": "Point", "coordinates": [11.2699163, 46.0972561]}}, {"id": "448", "type": "Feature", "properties": {"highway": "unclassified", "id": 39895997, "name": "", "type": "way"}, "geometry": {"type": "Point", "coordinates": [11.2401385, 46.0926953]}}, {"id": "449", "type": "Feature", "properties": {"highway": "unclassified", "id": 39896301, "name": "", "type": "way"}, "geometry": {"type": "Point", "coordinates": [11.2408786, 46.1017266]}}, {"id": "450", "type": "Feature", "properties": {"highway": "residential", "id": 39899563, "name": "Via Ai Tofolaci", "type": "way"}, "geometry": {"type": "Point", "coordinates": [11.2701139, 46.0813945]}}, {"id": "451", "type": "Feature", "properties": {"highway": "pedestrian", "id": 39900215, "name": "Vicolo Alberti", "type": "way"}, "geometry": {"type": "Point", "coordinates": [11.2411627, 46.061137]}}, {"id": "452", "type": "Feature", "properties": {"highway": "residential", "id": 39914629, "name": "Vicolo delle Oche", "type": "way"}, "geometry": {"type": "Point", "coordinates": [11.2399473, 46.0593341]}}, {"id": "453", "type": "Feature", "properties": {"highway": "service", "id": 39915967, "name": "", "type": "way"}, "geometry": {"type": "Point", "coordinates": [11.2376726, 46.0573009]}}, {"id": "454", "type": "Feature", "properties": {"highway": "service", "id": 39915974, "name": "", "type": "way"}, "geometry": {"type": "Point", "coordinates": [11.2378116, 46.0571545]}}, {"id": "455", "type": "Feature", "properties": {"highway": "residential", "id": 39962663, "name": "Via Montessori", "type": "way"}, "geometry": {"type": "Point", "coordinates": [11.2460602, 46.0655309]}}, {"id": "456", "type": "Feature", "properties": {"highway": "unclassified", "id": 39963313, "name": "", "type": "way"}, "geometry": {"type": "Point", "coordinates": [11.2551146, 46.0690877]}}, {"id": "457", "type": "Feature", "properties": {"highway": "service", "id": 40027497, "name": "", "type": "way"}, "geometry": {"type": "Point", "coordinates": [11.2579123, 46.0709652]}}, {"id": "458", "type": "Feature", "properties": {"highway": "service", "id": 40027650, "name": "", "type": "way"}, "geometry": {"type": "Point", "coordinates": [11.2588531, 46.071335]}}, {"id": "459", "type": "Feature", "properties": {"highway": "secondary", "id": 40057164, "name": "", "type": "way"}, "geometry": {"type": "Point", "coordinates": [11.2746286, 46.0769572]}}, {"id": "460", "type": "Feature", "properties": {"highway": "unclassified", "id": 40105660, "name": "Via Predolcia", "type": "way"}, "geometry": {"type": "Point", "coordinates": [11.2620142, 46.0797775]}}, {"id": "461", "type": "Feature", "properties": {"highway": "service", "id": 40108141, "name": "", "type": "way"}, "geometry": {"type": "Point", "coordinates": [11.2392602, 46.0612757]}}, {"id": "462", "type": "Feature", "properties": {"highway": "track", "id": 40108753, "name": "", "type": "way"}, "geometry": {"type": "Point", "coordinates": [11.2443923, 46.0559667]}}, {"id": "463", "type": "Feature", "properties": {"highway": "service", "id": 40122815, "name": "", "type": "way"}, "geometry": {"type": "Point", "coordinates": [11.24001, 46.0631114]}}, {"id": "464", "type": "Feature", "properties": {"highway": "unclassified", "id": 40123790, "name": "", "type": "way"}, "geometry": {"type": "Point", "coordinates": [11.2536316, 46.0350066]}}, {"id": "465", "type": "Feature", "properties": {"highway": "unclassified", "id": 40124162, "name": "Strada dei \"Santi\"", "type": "way"}, "geometry": {"type": "Point", "coordinates": [11.2586791, 46.0469131]}}, {"id": "466", "type": "Feature", "properties": {"highway": "track", "id": 40125402, "name": "", "type": "way"}, "geometry": {"type": "Point", "coordinates": [11.242287, 46.0565577]}}, {"id": "467", "type": "Feature", "properties": {"highway": "tertiary", "id": 40218310, "name": "Via Montengi\u00e0n", "type": "way"}, "geometry": {"type": "Point", "coordinates": [11.259382, 46.0792292]}}, {"id": "468", "type": "Feature", "properties": {"highway": "unclassified", "id": 40218390, "name": "Via Don Giacomo Vinciguerra", "type": "way"}, "geometry": {"type": "Point", "coordinates": [11.2625854, 46.0799874]}}, {"id": "469", "type": "Feature", "properties": {"highway": "tertiary", "id": 40218459, "name": "Maso Fenugola", "type": "way"}, "geometry": {"type": "Point", "coordinates": [11.2529708, 46.0861452]}}, {"id": "470", "type": "Feature", "properties": {"highway": "unclassified", "id": 40231908, "name": "", "type": "way"}, "geometry": {"type": "Point", "coordinates": [11.2296432, 46.0765266]}}, {"id": "471", "type": "Feature", "properties": {"highway": "path", "id": 40231929, "name": "", "type": "way"}, "geometry": {"type": "Point", "coordinates": [11.2323872, 46.0750115]}}, {"id": "472", "type": "Feature", "properties": {"highway": "track", "id": 40232792, "name": "", "type": "way"}, "geometry": {"type": "Point", "coordinates": [11.2170776, 46.0755382]}}, {"id": "473", "type": "Feature", "properties": {"highway": "path", "id": 40307527, "name": "", "type": "way"}, "geometry": {"type": "Point", "coordinates": [11.2475857, 46.0744551]}}, {"id": "474", "type": "Feature", "properties": {"highway": "path", "id": 40308127, "name": "Ippovia Trentino Orientale", "type": "way"}, "geometry": {"type": "Point", "coordinates": [11.2530375, 46.0805287]}}, {"id": "475", "type": "Feature", "properties": {"highway": "path", "id": 40308238, "name": "", "type": "way"}, "geometry": {"type": "Point", "coordinates": [11.2415064, 46.0758027]}}, {"id": "476", "type": "Feature", "properties": {"highway": "service", "id": 40388057, "name": "", "type": "way"}, "geometry": {"type": "Point", "coordinates": [11.2279617, 46.0131715]}}, {"id": "477", "type": "Feature", "properties": {"highway": "unclassified", "id": 40388063, "name": "", "type": "way"}, "geometry": {"type": "Point", "coordinates": [11.2270382, 46.0208602]}}, {"id": "478", "type": "Feature", "properties": {"highway": "residential", "id": 40426828, "name": "Via ai Molini", "type": "way"}, "geometry": {"type": "Point", "coordinates": [11.2825829, 46.0764893]}}, {"id": "479", "type": "Feature", "properties": {"highway": "track", "id": 40551882, "name": "", "type": "way"}, "geometry": {"type": "Point", "coordinates": [11.2042536, 46.0861557]}}, {"id": "480", "type": "Feature", "properties": {"highway": "unclassified", "id": 40551883, "name": "Via degli Artigiani", "type": "way"}, "geometry": {"type": "Point", "coordinates": [11.2106263, 46.0775555]}}, {"id": "481", "type": "Feature", "properties": {"highway": "unclassified", "id": 40551884, "name": "", "type": "way"}, "geometry": {"type": "Point", "coordinates": [11.2064158, 46.0790935]}}, {"id": "482", "type": "Feature", "properties": {"highway": "unclassified", "id": 40551885, "name": "Via degli Artigiani", "type": "way"}, "geometry": {"type": "Point", "coordinates": [11.2083107, 46.0780535]}}, {"id": "483", "type": "Feature", "properties": {"highway": "path", "id": 40551886, "name": "", "type": "way"}, "geometry": {"type": "Point", "coordinates": [11.226855, 46.0819009]}}, {"id": "484", "type": "Feature", "properties": {"highway": "path", "id": 40551887, "name": "", "type": "way"}, "geometry": {"type": "Point", "coordinates": [11.223246, 46.0831308]}}, {"id": "485", "type": "Feature", "properties": {"highway": "residential", "id": 40551888, "name": "Le Contrad\u00e8le", "type": "way"}, "geometry": {"type": "Point", "coordinates": [11.221972, 46.0835951]}}, {"id": "486", "type": "Feature", "properties": {"highway": "track", "id": 40551889, "name": "", "type": "way"}, "geometry": {"type": "Point", "coordinates": [11.2232768, 46.0840473]}}, {"id": "487", "type": "Feature", "properties": {"highway": "residential", "id": 40551890, "name": "Via di Sant'Antonio", "type": "way"}, "geometry": {"type": "Point", "coordinates": [11.2230287, 46.0847566]}}, {"id": "488", "type": "Feature", "properties": {"highway": "track", "id": 40551891, "name": "", "type": "way"}, "geometry": {"type": "Point", "coordinates": [11.223574, 46.0852607]}}, {"id": "489", "type": "Feature", "properties": {"highway": "path", "id": 40551892, "name": "", "type": "way"}, "geometry": {"type": "Point", "coordinates": [11.2241339, 46.0858494]}}, {"id": "490", "type": "Feature", "properties": {"highway": "track", "id": 40551893, "name": "", "type": "way"}, "geometry": {"type": "Point", "coordinates": [11.2243496, 46.0867617]}}, {"id": "491", "type": "Feature", "properties": {"highway": "track", "id": 40551894, "name": "", "type": "way"}, "geometry": {"type": "Point", "coordinates": [11.2242738, 46.0859849]}}, {"id": "492", "type": "Feature", "properties": {"highway": "track", "id": 40551895, "name": "", "type": "way"}, "geometry": {"type": "Point", "coordinates": [11.205591, 46.0839891]}}, {"id": "493", "type": "Feature", "properties": {"highway": "track", "id": 40551896, "name": "", "type": "way"}, "geometry": {"type": "Point", "coordinates": [11.2054961, 46.0815271]}}, {"id": "494", "type": "Feature", "properties": {"highway": "residential", "id": 40551897, "name": "Via delle Sp\u00f2ne", "type": "way"}, "geometry": {"type": "Point", "coordinates": [11.2060603, 46.0806921]}}, {"id": "495", "type": "Feature", "properties": {"highway": "secondary", "id": 40551898, "name": "", "type": "way"}, "geometry": {"type": "Point", "coordinates": [11.2049733, 46.0866596]}}, {"id": "496", "type": "Feature", "properties": {"highway": "unclassified", "id": 40551902, "name": "Via Lungolago", "type": "way"}, "geometry": {"type": "Point", "coordinates": [11.2263462, 46.0836163]}}, {"id": "497", "type": "Feature", "properties": {"highway": "track", "id": 40551903, "name": "", "type": "way"}, "geometry": {"type": "Point", "coordinates": [11.2215405, 46.0847406]}}, {"id": "498", "type": "Feature", "properties": {"highway": "tertiary", "id": 40551904, "name": "Via Tessara", "type": "way"}, "geometry": {"type": "Point", "coordinates": [11.2225466, 46.0817994]}}, {"id": "499", "type": "Feature", "properties": {"highway": "track", "id": 40609129, "name": "Via dei Gregiati", "type": "way"}, "geometry": {"type": "Point", "coordinates": [11.2161695, 46.085798]}}, {"id": "500", "type": "Feature", "properties": {"highway": "tertiary", "id": 40609130, "name": "Via d'Oltrefersina", "type": "way"}, "geometry": {"type": "Point", "coordinates": [11.2181555, 46.0841846]}}, {"id": "501", "type": "Feature", "properties": {"highway": "unclassified", "id": 40609131, "name": "Via ai Coredi", "type": "way"}, "geometry": {"type": "Point", "coordinates": [11.211518, 46.0827584]}}, {"id": "502", "type": "Feature", "properties": {"highway": "tertiary", "id": 40609132, "name": "Via della Val", "type": "way"}, "geometry": {"type": "Point", "coordinates": [11.230265, 46.0737054]}}, {"id": "503", "type": "Feature", "properties": {"highway": "secondary", "id": 40609143, "name": "Via di Castel Rocca", "type": "way"},