{"type": "FeatureCollection", "features": [{"id": "0", "type": "Feature", "properties": {"highway": "residential", "id": 13858908, "name": "Via Pomeranos", "type": "way"}, "geometry": {"type": "Point", "coordinates": [11.1324938, 46.0134473]}}, {"id": "1", "type": "Feature", "properties": {"highway": "tertiary", "id": 13858914, "name": "Via Giulio Catoni", "type": "way"}, "geometry": {"type": "Point", "coordinates": [11.1298123, 46.0108076]}}, {"id": "2", "type": "Feature", "properties": {"highway": "unclassified", "id": 13859962, "name": "Via delle Regole", "type": "way"}, "geometry": {"type": "Point", "coordinates": [11.1342604, 46.0096943]}}, {"id": "3", "type": "Feature", "properties": {"highway": "unclassified", "id": 13859970, "name": "Via della Roz\u00f2la", "type": "way"}, "geometry": {"type": "Point", "coordinates": [11.1336689, 46.0116116]}}, {"id": "4", "type": "Feature", "properties": {"highway": "secondary", "id": 13859996, "name": "Via Nazionale", "type": "way"}, "geometry": {"type": "Point", "coordinates": [11.1317364, 46.0139412]}}, {"id": "5", "type": "Feature", "properties": {"highway": "unclassified", "id": 13860002, "name": "Via delle Regole", "type": "way"}, "geometry": {"type": "Point", "coordinates": [11.1354167, 46.0099801]}}, {"id": "6", "type": "Feature", "properties": {"highway": "unclassified", "id": 13860015, "name": "Via delle Regole", "type": "way"}, "geometry": {"type": "Point", "coordinates": [11.1334056, 46.0081248]}}, {"id": "7", "type": "Feature", "properties": {"highway": "unclassified", "id": 13860018, "name": "Via delle C\u00e9se Longhe", "type": "way"}, "geometry": {"type": "Point", "coordinates": [11.1333057, 46.0058242]}}, {"id": "8", "type": "Feature", "properties": {"highway": "tertiary", "id": 13860023, "name": "", "type": "way"}, "geometry": {"type": "Point", "coordinates": [11.1334337, 46.0052083]}}, {"id": "9", "type": "Feature", "properties": {"highway": "unclassified", "id": 13860031, "name": "Via Pomeranos", "type": "way"}, "geometry": {"type": "Point", "coordinates": [11.1324375, 46.0138439]}}, {"id": "10", "type": "Feature", "properties": {"highway": "unclassified", "id": 13862220, "name": "Via Pomeranos", "type": "way"}, "geometry": {"type": "Point", "coordinates": [11.1317113, 46.0139136]}}, {"id": "11", "type": "Feature", "properties": {"highway": "service", "id": 15231142, "name": "Pista Ciclabile Valle dell'Adige", "type": "way"}, "geometry": {"type": "Point", "coordinates": [11.1236009, 46.0095409]}}, {"id": "12", "type": "Feature", "properties": {"highway": "secondary", "id": 16747332, "name": "Via del Ponte", "type": "way"}, "geometry": {"type": "Point", "coordinates": [11.1108272, 46.0436405]}}, {"id": "13", "type": "Feature", "properties": {"highway": "tertiary", "id": 22327486, "name": "Strada delle Novaline", "type": "way"}, "geometry": {"type": "Point", "coordinates": [11.1422137, 46.0152422]}}, {"id": "14", "type": "Feature", "properties": {"highway": "tertiary", "id": 22327488, "name": "Via del Cast\u00e8l", "type": "way"}, "geometry": {"type": "Point", "coordinates": [11.1326242, 46.0058098]}}, {"id": "15", "type": "Feature", "properties": {"highway": "tertiary", "id": 22327490, "name": "Via Guido Poli", "type": "way"}, "geometry": {"type": "Point", "coordinates": [11.1289996, 46.0057359]}}, {"id": "16", "type": "Feature", "properties": {"highway": "tertiary", "id": 22327491, "name": "Piazza Quintilio Perini", "type": "way"}, "geometry": {"type": "Point", "coordinates": [11.1282379, 46.0063807]}}, {"id": "17", "type": "Feature", "properties": {"highway": "secondary", "id": 22327493, "name": "Via Nazionale", "type": "way"}, "geometry": {"type": "Point", "coordinates": [11.1314927, 46.0136392]}}, {"id": "18", "type": "Feature", "properties": {"highway": "tertiary", "id": 22327494, "name": "Via della Gotarda", "type": "way"}, "geometry": {"type": "Point", "coordinates": [11.1222535, 46.0096022]}}, {"id": "19", "type": "Feature", "properties": {"highway": "residential", "id": 22327497, "name": "", "type": "way"}, "geometry": {"type": "Point", "coordinates": [11.1278116, 46.008269]}}, {"id": "20", "type": "Feature", "properties": {"highway": "tertiary", "id": 22913942, "name": "Strada della Valsugana", "type": "way"}, "geometry": {"type": "Point", "coordinates": [11.1507047, 46.0752604]}}, {"id": "21", "type": "Feature", "properties": {"highway": "residential", "id": 22985081, "name": "Salita Filippo Manci", "type": "way"}, "geometry": {"type": "Point", "coordinates": [11.1370144, 46.066863]}}, {"id": "22", "type": "Feature", "properties": {"highway": "residential", "id": 22985969, "name": "Piazza di San Don\u00e0", "type": "way"}, "geometry": {"type": "Point", "coordinates": [11.1399801, 46.0708663]}}, {"id": "23", "type": "Feature", "properties": {"highway": "residential", "id": 22986084, "name": "Via Giuseppe Verdi", "type": "way"}, "geometry": {"type": "Point", "coordinates": [11.1180829, 46.0665558]}}, {"id": "24", "type": "Feature", "properties": {"highway": "residential", "id": 22986312, "name": "Via Galileo Galilei", "type": "way"}, "geometry": {"type": "Point", "coordinates": [11.1263186, 46.0675748]}}, {"id": "25", "type": "Feature", "properties": {"highway": "pedestrian", "id": 22986560, "name": "Via Paolo Oss Mazzurana", "type": "way"}, "geometry": {"type": "Point", "coordinates": [11.1224874, 46.0693306]}}, {"id": "26", "type": "Feature", "properties": {"highway": "residential", "id": 22990180, "name": "Via del Villaggio Satellite", "type": "way"}, "geometry": {"type": "Point", "coordinates": [11.1384311, 46.0716604]}}, {"id": "27", "type": "Feature", "properties": {"highway": "secondary", "id": 22990333, "name": "Via Bassano", "type": "way"}, "geometry": {"type": "Point", "coordinates": [11.1508443, 46.0755948]}}, {"id": "28", "type": "Feature", "properties": {"highway": "secondary", "id": 22990600, "name": "Strada del Porfido", "type": "way"}, "geometry": {"type": "Point", "coordinates": [11.1284741, 46.1346248]}}, {"id": "29", "type": "Feature", "properties": {"highway": "tertiary", "id": 23004629, "name": "Via Mesiano", "type": "way"}, "geometry": {"type": "Point", "coordinates": [11.1399194, 46.0697602]}}, {"id": "30", "type": "Feature", "properties": {"highway": "secondary", "id": 23004666, "name": "Via Venezia", "type": "way"}, "geometry": {"type": "Point", "coordinates": [11.1397377, 46.0698641]}}, {"id": "31", "type": "Feature", "properties": {"highway": "tertiary", "id": 23007976, "name": "Via Mesiano", "type": "way"}, "geometry": {"type": "Point", "coordinates": [11.139657, 46.0679919]}}, {"id": "32", "type": "Feature", "properties": {"highway": "secondary", "id": 23056771, "name": "Via Bolzano", "type": "way"}, "geometry": {"type": "Point", "coordinates": [11.1130632, 46.0955786]}}, {"id": "33", "type": "Feature", "properties": {"highway": "tertiary", "id": 23058066, "name": "Via Caduti di Nassirya", "type": "way"}, "geometry": {"type": "Point", "coordinates": [11.1147368, 46.0839814]}}, {"id": "34", "type": "Feature", "properties": {"highway": "unclassified", "id": 23058125, "name": "Via Giuseppe Gilli", "type": "way"}, "geometry": {"type": "Point", "coordinates": [11.1189413, 46.0905542]}}, {"id": "35", "type": "Feature", "properties": {"highway": "steps", "id": 23058666, "name": "", "type": "way"}, "geometry": {"type": "Point", "coordinates": [11.1294154, 46.0683023]}}, {"id": "36", "type": "Feature", "properties": {"highway": "footway", "id": 23058691, "name": "", "type": "way"}, "geometry": {"type": "Point", "coordinates": [11.129399, 46.0682982]}}, {"id": "37", "type": "Feature", "properties": {"highway": "residential", "id": 23058701, "name": "Salita Filippo Manci", "type": "way"}, "geometry": {"type": "Point", "coordinates": [11.1354971, 46.0651792]}}, {"id": "38", "type": "Feature", "properties": {"highway": "residential", "id": 23058856, "name": "Via per l'Osservatorio", "type": "way"}, "geometry": {"type": "Point", "coordinates": [11.1361519, 46.0711008]}}, {"id": "39", "type": "Feature", "properties": {"highway": "residential", "id": 23058863, "name": "Via dei Giardini", "type": "way"}, "geometry": {"type": "Point", "coordinates": [11.1366363, 46.0723811]}}, {"id": "40", "type": "Feature", "properties": {"highway": "tertiary", "id": 23058904, "name": "Via Torre Vanga", "type": "way"}, "geometry": {"type": "Point", "coordinates": [11.1197261, 46.0700849]}}, {"id": "41", "type": "Feature", "properties": {"highway": "tertiary", "id": 23066740, "name": "Piazza Dante", "type": "way"}, "geometry": {"type": "Point", "coordinates": [11.1195437, 46.0711225]}}, {"id": "42", "type": "Feature", "properties": {"highway": "tertiary", "id": 23066741, "name": "Via San Lorenzo", "type": "way"}, "geometry": {"type": "Point", "coordinates": [11.1196289, 46.0706473]}}, {"id": "43", "type": "Feature", "properties": {"highway": "residential", "id": 23066966, "name": "Via Rodolfo Belenzani", "type": "way"}, "geometry": {"type": "Point", "coordinates": [11.1213806, 46.0681452]}}, {"id": "44", "type": "Feature", "properties": {"highway": "tertiary", "id": 23069364, "name": "", "type": "way"}, "geometry": {"type": "Point", "coordinates": [11.1159815, 46.0697641]}}, {"id": "45", "type": "Feature", "properties": {"highway": "footway", "id": 23127177, "name": "", "type": "way"}, "geometry": {"type": "Point", "coordinates": [11.1284497, 46.0698261]}}, {"id": "46", "type": "Feature", "properties": {"highway": "residential", "id": 23209259, "name": "Via degli Alberti Poja", "type": "way"}, "geometry": {"type": "Point", "coordinates": [11.1408597, 46.0715848]}}, {"id": "47", "type": "Feature", "properties": {"highway": "residential", "id": 23209320, "name": "Via del Villaggio Satellite", "type": "way"}, "geometry": {"type": "Point", "coordinates": [11.1391609, 46.0718926]}}, {"id": "48", "type": "Feature", "properties": {"highway": "residential", "id": 23209335, "name": "Piazza di San Don\u00e0", "type": "way"}, "geometry": {"type": "Point", "coordinates": [11.1401378, 46.0718299]}}, {"id": "49", "type": "Feature", "properties": {"highway": "residential", "id": 23209409, "name": "Piazza di San Don\u00e0", "type": "way"}, "geometry": {"type": "Point", "coordinates": [11.1393576, 46.0716824]}}, {"id": "50", "type": "Feature", "properties": {"highway": "residential", "id": 23209410, "name": "Piazza di San Don\u00e0", "type": "way"}, "geometry": {"type": "Point", "coordinates": [11.1400924, 46.071088]}}, {"id": "51", "type": "Feature", "properties": {"highway": "residential", "id": 23209471, "name": "", "type": "way"}, "geometry": {"type": "Point", "coordinates": [11.1389937, 46.0719311]}}, {"id": "52", "type": "Feature", "properties": {"highway": "residential", "id": 23209479, "name": "Via 26 settembre 1959", "type": "way"}, "geometry": {"type": "Point", "coordinates": [11.1387141, 46.0720491]}}, {"id": "53", "type": "Feature", "properties": {"highway": "residential", "id": 23209555, "name": "", "type": "way"}, "geometry": {"type": "Point", "coordinates": [11.1393102, 46.0726106]}}, {"id": "54", "type": "Feature", "properties": {"highway": "residential", "id": 23209579, "name": "Piazza di San Don\u00e0", "type": "way"}, "geometry": {"type": "Point", "coordinates": [11.1393752, 46.0711725]}}, {"id": "55", "type": "Feature", "properties": {"highway": "secondary", "id": 23234595, "name": "Viale Verona", "type": "way"}, "geometry": {"type": "Point", "coordinates": [11.1301254, 46.0513907]}}, {"id": "56", "type": "Feature", "properties": {"highway": "tertiary", "id": 23234597, "name": "Via Alcide De Gasperi", "type": "way"}, "geometry": {"type": "Point", "coordinates": [11.1172766, 46.0522961]}}, {"id": "57", "type": "Feature", "properties": {"highway": "unclassified", "id": 23298271, "name": "Via al Vascon", "type": "way"}, "geometry": {"type": "Point", "coordinates": [11.1411999, 46.0709661]}}, {"id": "58", "type": "Feature", "properties": {"highway": "service", "id": 23298272, "name": "", "type": "way"}, "geometry": {"type": "Point", "coordinates": [11.13987, 46.0727434]}}, {"id": "59", "type": "Feature", "properties": {"highway": "service", "id": 23298283, "name": "", "type": "way"}, "geometry": {"type": "Point", "coordinates": [11.1425557, 46.0711122]}}, {"id": "60", "type": "Feature", "properties": {"highway": "unclassified", "id": 23298285, "name": "Via al Vascon", "type": "way"}, "geometry": {"type": "Point", "coordinates": [11.1404317, 46.0710119]}}, {"id": "61", "type": "Feature", "properties": {"highway": "unclassified", "id": 23298338, "name": "Via dei Giardini", "type": "way"}, "geometry": {"type": "Point", "coordinates": [11.1365649, 46.0731277]}}, {"id": "62", "type": "Feature", "properties": {"highway": "footway", "id": 23298344, "name": "", "type": "way"}, "geometry": {"type": "Point", "coordinates": [11.1359867, 46.0742594]}}, {"id": "63", "type": "Feature", "properties": {"highway": "secondary", "id": 23302058, "name": "Via Bassano", "type": "way"}, "geometry": {"type": "Point", "coordinates": [11.1383033, 46.0740718]}}, {"id": "64", "type": "Feature", "properties": {"highway": "secondary", "id": 23302059, "name": "Via Bassano", "type": "way"}, "geometry": {"type": "Point", "coordinates": [11.1350043, 46.0757156]}}, {"id": "65", "type": "Feature", "properties": {"highway": "unclassified", "id": 23356218, "name": "Via delle Laste", "type": "way"}, "geometry": {"type": "Point", "coordinates": [11.131639, 46.0720836]}}, {"id": "66", "type": "Feature", "properties": {"highway": "path", "id": 23356381, "name": "", "type": "way"}, "geometry": {"type": "Point", "coordinates": [11.1366139, 46.0742772]}}, {"id": "67", "type": "Feature", "properties": {"highway": "service", "id": 23356717, "name": "Via per Fontanasanta", "type": "way"}, "geometry": {"type": "Point", "coordinates": [11.1350233, 46.0762267]}}, {"id": "68", "type": "Feature", "properties": {"highway": "residential", "id": 23357117, "name": "Via alla Pelegrina", "type": "way"}, "geometry": {"type": "Point", "coordinates": [11.1381733, 46.0776735]}}, {"id": "69", "type": "Feature", "properties": {"highway": "unclassified", "id": 23357120, "name": "", "type": "way"}, "geometry": {"type": "Point", "coordinates": [11.139138, 46.0764172]}}, {"id": "70", "type": "Feature", "properties": {"highway": "service", "id": 23357137, "name": "Via per Fontanasanta", "type": "way"}, "geometry": {"type": "Point", "coordinates": [11.1351193, 46.077097]}}, {"id": "71", "type": "Feature", "properties": {"highway": "secondary", "id": 23403993, "name": "Via di San Vincenzo", "type": "way"}, "geometry": {"type": "Point", "coordinates": [11.1327982, 46.031515]}}, {"id": "72", "type": "Feature", "properties": {"highway": "service", "id": 23414279, "name": "", "type": "way"}, "geometry": {"type": "Point", "coordinates": [11.1378389, 46.0726609]}}, {"id": "73", "type": "Feature", "properties": {"highway": "tertiary", "id": 23671966, "name": "Via alla Pelegrina", "type": "way"}, "geometry": {"type": "Point", "coordinates": [11.1386605, 46.0764422]}}, {"id": "74", "type": "Feature", "properties": {"highway": "tertiary", "id": 23680645, "name": "Via Missioni Africane", "type": "way"}, "geometry": {"type": "Point", "coordinates": [11.126237, 46.0805851]}}, {"id": "75", "type": "Feature", "properties": {"highway": "secondary_link", "id": 23680742, "name": "", "type": "way"}, "geometry": {"type": "Point", "coordinates": [11.1269887, 46.07994]}}, {"id": "76", "type": "Feature", "properties": {"highway": "tertiary", "id": 23680758, "name": "Via Missioni Africane", "type": "way"}, "geometry": {"type": "Point", "coordinates": [11.1262506, 46.0801965]}}, {"id": "77", "type": "Feature", "properties": {"highway": "tertiary", "id": 23680878, "name": "Via della Cervara", "type": "way"}, "geometry": {"type": "Point", "coordinates": [11.128047, 46.0716349]}}, {"id": "78", "type": "Feature", "properties": {"highway": "service", "id": 23691829, "name": "Piazza Dante Alighieri", "type": "way"}, "geometry": {"type": "Point", "coordinates": [11.119714, 46.0719886]}}, {"id": "79", "type": "Feature", "properties": {"highway": "secondary", "id": 23733914, "name": "Via Venezia", "type": "way"}, "geometry": {"type": "Point", "coordinates": [11.1285533, 46.0696123]}}, {"id": "80", "type": "Feature", "properties": {"highway": "cycleway", "id": 23734003, "name": "", "type": "way"}, "geometry": {"type": "Point", "coordinates": [11.1279639, 46.0699423]}}, {"id": "81", "type": "Feature", "properties": {"highway": "residential", "id": 23751867, "name": "Via Calepina", "type": "way"}, "geometry": {"type": "Point", "coordinates": [11.1230497, 46.066883]}}, {"id": "82", "type": "Feature", "properties": {"highway": "residential", "id": 23751933, "name": "Via Mantova", "type": "way"}, "geometry": {"type": "Point", "coordinates": [11.1241841, 46.0671042]}}, {"id": "83", "type": "Feature", "properties": {"highway": "pedestrian", "id": 23752172, "name": "Via Oriola", "type": "way"}, "geometry": {"type": "Point", "coordinates": [11.1229202, 46.0682031]}}, {"id": "84", "type": "Feature", "properties": {"highway": "residential", "id": 23762032, "name": "Via Calepina", "type": "way"}, "geometry": {"type": "Point", "coordinates": [11.1249314, 46.0671305]}}, {"id": "85", "type": "Feature", "properties": {"highway": "residential", "id": 23762228, "name": "Via Carlo Dordi", "type": "way"}, "geometry": {"type": "Point", "coordinates": [11.1228166, 46.0672834]}}, {"id": "86", "type": "Feature", "properties": {"highway": "pedestrian", "id": 23762321, "name": "Piazza del Duomo", "type": "way"}, "geometry": {"type": "Point", "coordinates": [11.12142670401024, 46.06735185]}}, {"id": "87", "type": "Feature", "properties": {"highway": "pedestrian", "id": 23762376, "name": "Piazza Mario Pasi", "type": "way"}, "geometry": {"type": "Point", "coordinates": [11.1222729, 46.0678345]}}, {"id": "88", "type": "Feature", "properties": {"highway": "residential", "id": 23762459, "name": "Piazza del Duomo", "type": "way"}, "geometry": {"type": "Point", "coordinates": [11.121469, 46.0677381]}}, {"id": "89", "type": "Feature", "properties": {"highway": "pedestrian", "id": 23762460, "name": "Piazza Mario Pasi", "type": "way"}, "geometry": {"type": "Point", "coordinates": [11.122254307561729, 46.067837499999996]}}, {"id": "90", "type": "Feature", "properties": {"highway": "pedestrian", "id": 23762499, "name": "Vicolo dei Dall'Armi", "type": "way"}, "geometry": {"type": "Point", "coordinates": [11.1222368, 46.0679122]}}, {"id": "91", "type": "Feature", "properties": {"highway": "pedestrian", "id": 23762693, "name": "Piazzetta del Sass", "type": "way"}, "geometry": {"type": "Point", "coordinates": [11.1232271, 46.0685408]}}, {"id": "92", "type": "Feature", "properties": {"highway": "residential", "id": 23762742, "name": "Largo Giosu\u00e8 Carducci", "type": "way"}, "geometry": {"type": "Point", "coordinates": [11.1252392, 46.0683737]}}, {"id": "93", "type": "Feature", "properties": {"highway": "residential", "id": 23762833, "name": "Via Galileo Galilei", "type": "way"}, "geometry": {"type": "Point", "coordinates": [11.1253579, 46.0682312]}}, {"id": "94", "type": "Feature", "properties": {"highway": "pedestrian", "id": 23763043, "name": "Piazza di Fiera", "type": "way"}, "geometry": {"type": "Point", "coordinates": [11.123157, 46.0652427]}}, {"id": "95", "type": "Feature", "properties": {"highway": "secondary", "id": 23763110, "name": "Largo Luigi Pigarelli", "type": "way"}, "geometry": {"type": "Point", "coordinates": [11.1257928, 46.065956]}}, {"id": "96", "type": "Feature", "properties": {"highway": "residential", "id": 23763170, "name": "Via Brigata Acqui", "type": "way"}, "geometry": {"type": "Point", "coordinates": [11.1281598, 46.0650092]}}, {"id": "97", "type": "Feature", "properties": {"highway": "residential", "id": 23763178, "name": "Via Carlo Antonio Pilati", "type": "way"}, "geometry": {"type": "Point", "coordinates": [11.1273145, 46.0659942]}}, {"id": "98", "type": "Feature", "properties": {"highway": "unclassified", "id": 23763189, "name": "Via dei Paradisi", "type": "way"}, "geometry": {"type": "Point", "coordinates": [11.1276073, 46.0667619]}}, {"id": "99", "type": "Feature", "properties": {"highway": "service", "id": 23763209, "name": "Via Giuseppe Grazioli", "type": "way"}, "geometry": {"type": "Point", "coordinates": [11.1282852, 46.0675709]}}, {"id": "100", "type": "Feature", "properties": {"highway": "pedestrian", "id": 23763300, "name": "Stretta del Duomo", "type": "way"}, "geometry": {"type": "Point", "coordinates": [11.1210492, 46.0668711]}}, {"id": "101", "type": "Feature", "properties": {"highway": "pedestrian", "id": 23763416, "name": "Via Giuseppe Verdi", "type": "way"}, "geometry": {"type": "Point", "coordinates": [11.1191419, 46.0666639]}}, {"id": "102", "type": "Feature", "properties": {"highway": "pedestrian", "id": 23763844, "name": "Piazza Alessandro Vittoria", "type": "way"}, "geometry": {"type": "Point", "coordinates": [11.123473765029999, 46.067077749999996]}}, {"id": "103", "type": "Feature", "properties": {"highway": "residential", "id": 23763851, "name": "Piazza delle Erbe", "type": "way"}, "geometry": {"type": "Point", "coordinates": [11.1240327, 46.0673555]}}, {"id": "104", "type": "Feature", "properties": {"highway": "pedestrian", "id": 23763863, "name": "Piazza delle Erbe", "type": "way"}, "geometry": {"type": "Point", "coordinates": [11.123892652854629, 46.06745275]}}, {"id": "105", "type": "Feature", "properties": {"highway": "pedestrian", "id": 23763869, "name": "Via Malpaga", "type": "way"}, "geometry": {"type": "Point", "coordinates": [11.1233985, 46.0687294]}}, {"id": "106", "type": "Feature", "properties": {"highway": "pedestrian", "id": 23763878, "name": "Via Schivabriga", "type": "way"}, "geometry": {"type": "Point", "coordinates": [11.1235128, 46.0682343]}}, {"id": "107", "type": "Feature", "properties": {"highway": "residential", "id": 23763916, "name": "Via delle Orfane", "type": "way"}, "geometry": {"type": "Point", "coordinates": [11.1199889, 46.0691309]}}, {"id": "108", "type": "Feature", "properties": {"highway": "pedestrian", "id": 23763924, "name": "Vicolo Colico", "type": "way"}, "geometry": {"type": "Point", "coordinates": [11.1201725, 46.068702]}}, {"id": "109", "type": "Feature", "properties": {"highway": "residential", "id": 23763968, "name": "Piazza Santa Maria Maggiore", "type": "way"}, "geometry": {"type": "Point", "coordinates": [11.1187466, 46.0686582]}}, {"id": "110", "type": "Feature", "properties": {"highway": "residential", "id": 23763977, "name": "Via Camillo Benso Cavour", "type": "way"}, "geometry": {"type": "Point", "coordinates": [11.1205421, 46.0681188]}}, {"id": "111", "type": "Feature", "properties": {"highway": "residential", "id": 23763993, "name": "Via Santissima Trinit\u00e1", "type": "way"}, "geometry": {"type": "Point", "coordinates": [11.1227714, 46.06629]}}, {"id": "112", "type": "Feature", "properties": {"highway": "pedestrian", "id": 23764020, "name": "Vicolo del Capitolo", "type": "way"}, "geometry": {"type": "Point", "coordinates": [11.1221149, 46.0664798]}}, {"id": "113", "type": "Feature", "properties": {"highway": "steps", "id": 23768853, "name": "", "type": "way"}, "geometry": {"type": "Point", "coordinates": [11.1222584, 46.0667441]}}, {"id": "114", "type": "Feature", "properties": {"highway": "tertiary", "id": 23794856, "name": "Via della Prepositura", "type": "way"}, "geometry": {"type": "Point", "coordinates": [11.1182695, 46.0697546]}}, {"id": "115", "type": "Feature", "properties": {"highway": "pedestrian", "id": 23794918, "name": "Via Armando Diaz", "type": "way"}, "geometry": {"type": "Point", "coordinates": [11.1233576, 46.0690627]}}, {"id": "116", "type": "Feature", "properties": {"highway": "secondary", "id": 23795382, "name": "Via cardinale Bernardo Clesio", "type": "way"}, "geometry": {"type": "Point", "coordinates": [11.1270612, 46.0702467]}}, {"id": "117", "type": "Feature", "properties": {"highway": "secondary", "id": 23795535, "name": "Via Venezia", "type": "way"}, "geometry": {"type": "Point", "coordinates": [11.1297529, 46.0676316]}}, {"id": "118", "type": "Feature", "properties": {"highway": "tertiary", "id": 23795538, "name": "Via San Lorenzo", "type": "way"}, "geometry": {"type": "Point", "coordinates": [11.1177285, 46.0700777]}}, {"id": "119", "type": "Feature", "properties": {"highway": "tertiary", "id": 23795565, "name": "Via San Lorenzo", "type": "way"}, "geometry": {"type": "Point", "coordinates": [11.116821, 46.0702158]}}, {"id": "120", "type": "Feature", "properties": {"highway": "tertiary", "id": 23795568, "name": "Via Roberto da Sanseverino", "type": "way"}, "geometry": {"type": "Point", "coordinates": [11.1135136, 46.0645179]}}, {"id": "121", "type": "Feature", "properties": {"highway": "service", "id": 23795654, "name": "Via Dietro le Mura A", "type": "way"}, "geometry": {"type": "Point", "coordinates": [11.1239492, 46.0653813]}}, {"id": "122", "type": "Feature", "properties": {"highway": "residential", "id": 23795655, "name": "Via degli Orti", "type": "way"}, "geometry": {"type": "Point", "coordinates": [11.1211893, 46.0657118]}}, {"id": "123", "type": "Feature", "properties": {"highway": "unclassified", "id": 23795664, "name": "Via senatore Carlo Esterle", "type": "way"}, "geometry": {"type": "Point", "coordinates": [11.1211275, 46.0649225]}}, {"id": "124", "type": "Feature", "properties": {"highway": "pedestrian", "id": 23795665, "name": "Via senatore Carlo Esterle", "type": "way"}, "geometry": {"type": "Point", "coordinates": [11.1210276, 46.0665071]}}, {"id": "125", "type": "Feature", "properties": {"highway": "pedestrian", "id": 23795676, "name": "Vicolo dei Birri", "type": "way"}, "geometry": {"type": "Point", "coordinates": [11.1210629, 46.0667705]}}, {"id": "126", "type": "Feature", "properties": {"highway": "residential", "id": 23795681, "name": "Via senatore Carlo Esterle", "type": "way"}, "geometry": {"type": "Point", "coordinates": [11.1211285, 46.0661586]}}, {"id": "127", "type": "Feature", "properties": {"highway": "tertiary", "id": 23800071, "name": "Via Dogana", "type": "way"}, "geometry": {"type": "Point", "coordinates": [11.1206726, 46.0733941]}}, {"id": "128", "type": "Feature", "properties": {"highway": "tertiary", "id": 23807827, "name": "Via Clorinda Veglia Menguzzato", "type": "way"}, "geometry": {"type": "Point", "coordinates": [11.1317688, 46.0405802]}}, {"id": "129", "type": "Feature", "properties": {"highway": "secondary", "id": 23807936, "name": "Via Alcide De Gasperi", "type": "way"}, "geometry": {"type": "Point", "coordinates": [11.1311145, 46.0420362]}}, {"id": "130", "type": "Feature", "properties": {"highway": "unclassified", "id": 23808052, "name": "Via Enrico Fermi", "type": "way"}, "geometry": {"type": "Point", "coordinates": [11.12665, 46.0469375]}}, {"id": "131", "type": "Feature", "properties": {"highway": "unclassified", "id": 23808336, "name": "Via Alessandro Volta", "type": "way"}, "geometry": {"type": "Point", "coordinates": [11.1243118, 46.0479051]}}, {"id": "132", "type": "Feature", "properties": {"highway": "unclassified", "id": 23809257, "name": "Via Sommarive", "type": "way"}, "geometry": {"type": "Point", "coordinates": [11.1502712, 46.0645071]}}, {"id": "133", "type": "Feature", "properties": {"highway": "unclassified", "id": 23809281, "name": "Piazza Giannantonio Manci", "type": "way"}, "geometry": {"type": "Point", "coordinates": [11.1541889, 46.0662233]}}, {"id": "134", "type": "Feature", "properties": {"highway": "tertiary", "id": 23809348, "name": "Via Don Tommaso Dallafior", "type": "way"}, "geometry": {"type": "Point", "coordinates": [11.1538729, 46.0652953]}}, {"id": "135", "type": "Feature", "properties": {"highway": "tertiary", "id": 23809374, "name": "Via per Tavernaro", "type": "way"}, "geometry": {"type": "Point", "coordinates": [11.1569926, 46.0809117]}}, {"id": "136", "type": "Feature", "properties": {"highway": "unclassified", "id": 23809386, "name": "Piazza dei Predaroi", "type": "way"}, "geometry": {"type": "Point", "coordinates": [11.159737, 46.0860932]}}, {"id": "137", "type": "Feature", "properties": {"highway": "tertiary", "id": 23809430, "name": "", "type": "way"}, "geometry": {"type": "Point", "coordinates": [11.1411443, 46.0766102]}}, {"id": "138", "type": "Feature", "properties": {"highway": "tertiary", "id": 23809441, "name": "Via delle Marnighe", "type": "way"}, "geometry": {"type": "Point", "coordinates": [11.1404289, 46.078893]}}, {"id": "139", "type": "Feature", "properties": {"highway": "tertiary", "id": 23809484, "name": "Via alla Formigheta", "type": "way"}, "geometry": {"type": "Point", "coordinates": [11.1323778, 46.0896247]}}, {"id": "140", "type": "Feature", "properties": {"highway": "residential", "id": 23809489, "name": "Via delle Costiole", "type": "way"}, "geometry": {"type": "Point", "coordinates": [11.1321494, 46.0918643]}}, {"id": "141", "type": "Feature", "properties": {"highway": "residential", "id": 23814986, "name": "Via Giuseppe Verdi", "type": "way"}, "geometry": {"type": "Point", "coordinates": [11.1169231, 46.0664652]}}, {"id": "142", "type": "Feature", "properties": {"highway": "unclassified", "id": 23814996, "name": "Via Tommaso Gar", "type": "way"}, "geometry": {"type": "Point", "coordinates": [11.1172739, 46.0673008]}}, {"id": "143", "type": "Feature", "properties": {"highway": "unclassified", "id": 23815011, "name": "Via Tommaso Gar", "type": "way"}, "geometry": {"type": "Point", "coordinates": [11.116953, 46.0690898]}}, {"id": "144", "type": "Feature", "properties": {"highway": "unclassified", "id": 23854157, "name": "Via D\u00f2s Trento", "type": "way"}, "geometry": {"type": "Point", "coordinates": [11.1117432, 46.0755227]}}, {"id": "145", "type": "Feature", "properties": {"highway": "footway", "id": 23854163, "name": "Via alla Scala", "type": "way"}, "geometry": {"type": "Point", "coordinates": [11.1024909, 46.0772521]}}, {"id": "146", "type": "Feature", "properties": {"highway": "secondary", "id": 23854200, "name": "Via Livio Druso", "type": "way"}, "geometry": {"type": "Point", "coordinates": [11.113447, 46.0769523]}}, {"id": "147", "type": "Feature", "properties": {"highway": "secondary", "id": 23854201, "name": "Via Livio Druso", "type": "way"}, "geometry": {"type": "Point", "coordinates": [11.1156413, 46.07751]}}, {"id": "148", "type": "Feature", "properties": {"highway": "secondary", "id": 23854473, "name": "Via Felice e Gregorio Fontana", "type": "way"}, "geometry": {"type": "Point", "coordinates": [11.1214077, 46.076377]}}, {"id": "149", "type": "Feature", "properties": {"highway": "secondary", "id": 23854590, "name": "Via di Centa", "type": "way"}, "geometry": {"type": "Point", "coordinates": [11.122815, 46.0758312]}}, {"id": "150", "type": "Feature", "properties": {"highway": "secondary", "id": 23854591, "name": "Via Francesco Ambrosi", "type": "way"}, "geometry": {"type": "Point", "coordinates": [11.1233452, 46.07683]}}, {"id": "151", "type": "Feature", "properties": {"highway": "secondary", "id": 23854594, "name": "Via Francesco Ambrosi", "type": "way"}, "geometry": {"type": "Point", "coordinates": [11.1229071, 46.0761443]}}, {"id": "152", "type": "Feature", "properties": {"highway": "secondary", "id": 23854595, "name": "Via del Brennero", "type": "way"}, "geometry": {"type": "Point", "coordinates": [11.119416, 46.0845079]}}, {"id": "153", "type": "Feature", "properties": {"highway": "tertiary", "id": 23854781, "name": "Lungadige Marco Apuleio", "type": "way"}, "geometry": {"type": "Point", "coordinates": [11.1155878, 46.0744838]}}, {"id": "154", "type": "Feature", "properties": {"highway": "secondary", "id": 23857969, "name": "Via Alessandro Manzoni", "type": "way"}, "geometry": {"type": "Point", "coordinates": [11.124962, 46.0731097]}}, {"id": "155", "type": "Feature", "properties": {"highway": "unclassified", "id": 23857970, "name": "Via Bartolameo da Trento", "type": "way"}, "geometry": {"type": "Point", "coordinates": [11.1244168, 46.0760584]}}, {"id": "156", "type": "Feature", "properties": {"highway": "secondary", "id": 23858004, "name": "Via del Brennero", "type": "way"}, "geometry": {"type": "Point", "coordinates": [11.1240444, 46.0764929]}}, {"id": "157", "type": "Feature", "properties": {"highway": "tertiary", "id": 23860176, "name": "Via della Gotarda", "type": "way"}, "geometry": {"type": "Point", "coordinates": [11.123848, 46.0095716]}}, {"id": "158", "type": "Feature", "properties": {"highway": "unclassified", "id": 23884317, "name": "Via Santi Cosma e Damiano", "type": "way"}, "geometry": {"type": "Point", "coordinates": [11.1067014, 46.075615]}}, {"id": "159", "type": "Feature", "properties": {"highway": "unclassified", "id": 23884318, "name": "Via Santi Cosma e Damiano", "type": "way"}, "geometry": {"type": "Point", "coordinates": [11.104777, 46.0763552]}}, {"id": "160", "type": "Feature", "properties": {"highway": "steps", "id": 23884550, "name": "", "type": "way"}, "geometry": {"type": "Point", "coordinates": [11.1164369, 46.067973]}}, {"id": "161", "type": "Feature", "properties": {"highway": "footway", "id": 23884551, "name": "Pista Ciclabile Valle dell'Adige", "type": "way"}, "geometry": {"type": "Point", "coordinates": [11.1137786, 46.0456608]}}, {"id": "162", "type": "Feature", "properties": {"highway": "unclassified", "id": 23884552, "name": "Via Del Ponte", "type": "way"}, "geometry": {"type": "Point", "coordinates": [11.119497, 46.0405448]}}, {"id": "163", "type": "Feature", "properties": {"highway": "tertiary", "id": 23888166, "name": "Via Alcide De Gasperi", "type": "way"}, "geometry": {"type": "Point", "coordinates": [11.1256957, 46.0490314]}}, {"id": "164", "type": "Feature", "properties": {"highway": "unclassified", "id": 23888167, "name": "Via Enrico Fermi", "type": "way"}, "geometry": {"type": "Point", "coordinates": [11.1266233, 46.0472376]}}, {"id": "165", "type": "Feature", "properties": {"highway": "unclassified", "id": 23888168, "name": "Via Fersina", "type": "way"}, "geometry": {"type": "Point", "coordinates": [11.1254018, 46.0468022]}}, {"id": "166", "type": "Feature", "properties": {"highway": "residential", "id": 23888170, "name": "Via Fersina", "type": "way"}, "geometry": {"type": "Point", "coordinates": [11.1250901, 46.0451891]}}, {"id": "167", "type": "Feature", "properties": {"highway": "residential", "id": 23889513, "name": "Via Alcide De Gasperi", "type": "way"}, "geometry": {"type": "Point", "coordinates": [11.1219748, 46.0508688]}}, {"id": "168", "type": "Feature", "properties": {"highway": "unclassified", "id": 23913960, "name": "Via la Clarina", "type": "way"}, "geometry": {"type": "Point", "coordinates": [11.1279059, 46.0513221]}}, {"id": "169", "type": "Feature", "properties": {"highway": "secondary", "id": 23913962, "name": "Viale Verona", "type": "way"}, "geometry": {"type": "Point", "coordinates": [11.1312341, 46.0424404]}}, {"id": "170", "type": "Feature", "properties": {"highway": "secondary", "id": 23913963, "name": "Viale Verona", "type": "way"}, "geometry": {"type": "Point", "coordinates": [11.1307762, 46.050064]}}, {"id": "171", "type": "Feature", "properties": {"highway": "tertiary", "id": 23913965, "name": "Via Alcide De Gasperi", "type": "way"}, "geometry": {"type": "Point", "coordinates": [11.1277134, 46.0468295]}}, {"id": "172", "type": "Feature", "properties": {"highway": "tertiary", "id": 23913966, "name": "Via Alcide De Gasperi", "type": "way"}, "geometry": {"type": "Point", "coordinates": [11.1272467, 46.0473407]}}, {"id": "173", "type": "Feature", "properties": {"highway": "tertiary", "id": 23913967, "name": "Via Alcide De Gasperi", "type": "way"}, "geometry": {"type": "Point", "coordinates": [11.1279621, 46.045561]}}, {"id": "174", "type": "Feature", "properties": {"highway": "tertiary", "id": 23914028, "name": "Via Alcide De Gasperi", "type": "way"}, "geometry": {"type": "Point", "coordinates": [11.1237266, 46.0507458]}}, {"id": "175", "type": "Feature", "properties": {"highway": "unclassified", "id": 23914029, "name": "Via Gandhi", "type": "way"}, "geometry": {"type": "Point", "coordinates": [11.1243333, 46.0515516]}}, {"id": "176", "type": "Feature", "properties": {"highway": "unclassified", "id": 23951045, "name": "Via Antonio Gramsci", "type": "way"}, "geometry": {"type": "Point", "coordinates": [11.1264024, 46.0533861]}}, {"id": "177", "type": "Feature", "properties": {"highway": "unclassified", "id": 23951046, "name": "Via Antonio Gramsci", "type": "way"}, "geometry": {"type": "Point", "coordinates": [11.1282337, 46.0523615]}}, {"id": "178", "type": "Feature", "properties": {"highway": "unclassified", "id": 23951047, "name": "Via Luigi Einaudi", "type": "way"}, "geometry": {"type": "Point", "coordinates": [11.1262586, 46.0522568]}}, {"id": "179", "type": "Feature", "properties": {"highway": "residential", "id": 23951099, "name": "Via Marsala", "type": "way"}, "geometry": {"type": "Point", "coordinates": [11.125686, 46.0572352]}}, {"id": "180", "type": "Feature", "properties": {"highway": "secondary", "id": 23951161, "name": "Via Piave", "type": "way"}, "geometry": {"type": "Point", "coordinates": [11.1273753, 46.0635889]}}, {"id": "181", "type": "Feature", "properties": {"highway": "residential", "id": 23951162, "name": "Via Dietro Le Mura B", "type": "way"}, "geometry": {"type": "Point", "coordinates": [11.1263359, 46.0675929]}}, {"id": "182", "type": "Feature", "properties": {"highway": "residential", "id": 23951199, "name": "Largo Giosu\u00e8 Carducci", "type": "way"}, "geometry": {"type": "Point", "coordinates": [11.1239478, 46.0683541]}}, {"id": "183", "type": "Feature", "properties": {"highway": "residential", "id": 23951201, "name": "Via Mantova", "type": "way"}, "geometry": {"type": "Point", "coordinates": [11.1240295, 46.0676992]}}, {"id": "184", "type": "Feature", "properties": {"highway": "unclassified", "id": 23951237, "name": "Largo Nazario Sauro", "type": "way"}, "geometry": {"type": "Point", "coordinates": [11.1250078, 46.0744778]}}, {"id": "185", "type": "Feature", "properties": {"highway": "secondary", "id": 23951662, "name": "Via Felice e Gregorio Fontana", "type": "way"}, "geometry": {"type": "Point", "coordinates": [11.1158194, 46.0776297]}}, {"id": "186", "type": "Feature", "properties": {"highway": "secondary", "id": 23951665, "name": "Via Livio Druso", "type": "way"}, "geometry": {"type": "Point", "coordinates": [11.113529, 46.0768089]}}, {"id": "187", "type": "Feature", "properties": {"highway": "tertiary", "id": 23951767, "name": "Corso Michelangelo Buonarroti", "type": "way"}, "geometry": {"type": "Point", "coordinates": [11.1189556, 46.0750565]}}, {"id": "188", "type": "Feature", "properties": {"highway": "unclassified", "id": 23951768, "name": "Lungadige Giacomo Leopardi", "type": "way"}, "geometry": {"type": "Point", "coordinates": [11.116826, 46.0755372]}}, {"id": "189", "type": "Feature", "properties": {"highway": "tertiary", "id": 23951769, "name": "Via Giovanni Pedrotti", "type": "way"}, "geometry": {"type": "Point", "coordinates": [11.1161069, 46.0777723]}}, {"id": "190", "type": "Feature", "properties": {"highway": "residential", "id": 23951806, "name": "Via Cristoforo Busetti", "type": "way"}, "geometry": {"type": "Point", "coordinates": [11.117025, 46.0724292]}}, {"id": "191", "type": "Feature", "properties": {"highway": "tertiary", "id": 23951872, "name": "Via Ezio Maccani", "type": "way"}, "geometry": {"type": "Point", "coordinates": [11.1145555, 46.0834383]}}, {"id": "192", "type": "Feature", "properties": {"highway": "tertiary", "id": 23951873, "name": "Via Ezio Maccani", "type": "way"}, "geometry": {"type": "Point", "coordinates": [11.1143933, 46.0833038]}}, {"id": "193", "type": "Feature", "properties": {"highway": "tertiary", "id": 23951874, "name": "Via Ezio Maccani", "type": "way"}, "geometry": {"type": "Point", "coordinates": [11.1148913, 46.0828569]}}, {"id": "194", "type": "Feature", "properties": {"highway": "residential", "id": 23951875, "name": "Via Antonio Abondi", "type": "way"}, "geometry": {"type": "Point", "coordinates": [11.1150643, 46.0809592]}}, {"id": "195", "type": "Feature", "properties": {"highway": "residential", "id": 23951876, "name": "Corso degli Alpini", "type": "way"}, "geometry": {"type": "Point", "coordinates": [11.118848, 46.0781764]}}, {"id": "196", "type": "Feature", "properties": {"highway": "residential", "id": 23951893, "name": "Piazza General Antonio Cantore", "type": "way"}, "geometry": {"type": "Point", "coordinates": [11.1199557, 46.0772084]}}, {"id": "197", "type": "Feature", "properties": {"highway": "secondary", "id": 23952131, "name": "Piazza Centa", "type": "way"}, "geometry": {"type": "Point", "coordinates": [11.122617, 46.075858]}}, {"id": "198", "type": "Feature", "properties": {"highway": "tertiary", "id": 23952132, "name": "Via Giovanni Segantini", "type": "way"}, "geometry": {"type": "Point", "coordinates": [11.1219054, 46.0746741]}}, {"id": "199", "type": "Feature", "properties": {"highway": "secondary", "id": 23952134, "name": "Largo Nazario Sauro", "type": "way"}, "geometry": {"type": "Point", "coordinates": [11.1249106, 46.0748245]}}, {"id": "200", "type": "Feature", "properties": {"highway": "tertiary", "id": 23952139, "name": "Via del Forte", "type": "way"}, "geometry": {"type": "Point", "coordinates": [11.1317947, 46.0865151]}}, {"id": "201", "type": "Feature", "properties": {"highway": "tertiary", "id": 23952140, "name": "Via dell'Albera", "type": "way"}, "geometry": {"type": "Point", "coordinates": [11.132629, 46.0875881]}}, {"id": "202", "type": "Feature", "properties": {"highway": "unclassified", "id": 23952142, "name": "Piazza Giuseppe Menghin", "type": "way"}, "geometry": {"type": "Point", "coordinates": [11.1317504, 46.0909371]}}, {"id": "203", "type": "Feature", "properties": {"highway": "residential", "id": 23957570, "name": "Via del Travai", "type": "way"}, "geometry": {"type": "Point", "coordinates": [11.1214124, 46.0646116]}}, {"id": "204", "type": "Feature", "properties": {"highway": "tertiary", "id": 23976436, "name": "Via Don Leone Serafini", "type": "way"}, "geometry": {"type": "Point", "coordinates": [11.131133, 46.0893931]}}, {"id": "205", "type": "Feature", "properties": {"highway": "residential", "id": 23982173, "name": "Via del Logh\u00e9t", "type": "way"}, "geometry": {"type": "Point", "coordinates": [11.0930401, 46.1211091]}}, {"id": "206", "type": "Feature", "properties": {"highway": "secondary", "id": 23982648, "name": "Via Bassano", "type": "way"}, "geometry": {"type": "Point", "coordinates": [11.1249301, 46.087467]}}, {"id": "207", "type": "Feature", "properties": {"highway": "unclassified", "id": 23982877, "name": "Via dei Consolati", "type": "way"}, "geometry": {"type": "Point", "coordinates": [11.1381458, 46.0796097]}}, {"id": "208", "type": "Feature", "properties": {"highway": "tertiary", "id": 23982879, "name": "Via di Pradiscola", "type": "way"}, "geometry": {"type": "Point", "coordinates": [11.1384494, 46.0802067]}}, {"id": "209", "type": "Feature", "properties": {"highway": "secondary", "id": 23994565, "name": "Via Livio Druso", "type": "way"}, "geometry": {"type": "Point", "coordinates": [11.1157669, 46.0775487]}}, {"id": "210", "type": "Feature", "properties": {"highway": "unclassified", "id": 23997675, "name": "Via dei masad\u00f3ri", "type": "way"}, "geometry": {"type": "Point", "coordinates": [11.0973288, 46.118821]}}, {"id": "211", "type": "Feature", "properties": {"highway": "residential", "id": 23997684, "name": "Via Bratislava", "type": "way"}, "geometry": {"type": "Point", "coordinates": [11.1008795, 46.1256729]}}, {"id": "212", "type": "Feature", "properties": {"highway": "track", "id": 23998472, "name": "", "type": "way"}, "geometry": {"type": "Point", "coordinates": [11.0873057, 46.1201238]}}, {"id": "213", "type": "Feature", "properties": {"highway": "unclassified", "id": 23998701, "name": "Via Praga", "type": "way"}, "geometry": {"type": "Point", "coordinates": [11.0971462, 46.123427]}}, {"id": "214", "type": "Feature", "properties": {"highway": "unclassified", "id": 23998749, "name": "Via Cesare Beccaria", "type": "way"}, "geometry": {"type": "Point", "coordinates": [11.0961005, 46.1268269]}}, {"id": "215", "type": "Feature", "properties": {"highway": "unclassified", "id": 23998810, "name": "Via Vienna", "type": "way"}, "geometry": {"type": "Point", "coordinates": [11.0988074, 46.1216931]}}, {"id": "216", "type": "Feature", "properties": {"highway": "unclassified", "id": 23998895, "name": "Via Salisburgo", "type": "way"}, "geometry": {"type": "Point", "coordinates": [11.1024747, 46.1231348]}}, {"id": "217", "type": "Feature", "properties": {"highway": "unclassified", "id": 23998896, "name": "Via Salisburgo", "type": "way"}, "geometry": {"type": "Point", "coordinates": [11.1038807, 46.1205558]}}, {"id": "218", "type": "Feature", "properties": {"highway": "unclassified", "id": 24008894, "name": "Via Klagenfurt", "type": "way"}, "geometry": {"type": "Point", "coordinates": [11.0949814, 46.115646]}}, {"id": "219", "type": "Feature", "properties": {"highway": "unclassified", "id": 24008895, "name": "Via Bregenz", "type": "way"}, "geometry": {"type": "Point", "coordinates": [11.0933116, 46.1153982]}}, {"id": "220", "type": "Feature", "properties": {"highway": "unclassified", "id": 24008898, "name": "Via Graz", "type": "way"}, "geometry": {"type": "Point", "coordinates": [11.1051323, 46.1247689]}}, {"id": "221", "type": "Feature", "properties": {"highway": "steps", "id": 24008900, "name": "", "type": "way"}, "geometry": {"type": "Point", "coordinates": [11.1074573, 46.1256353]}}, {"id": "222", "type": "Feature", "properties": {"highway": "unclassified", "id": 24008901, "name": "Via alle R\u00f2ste", "type": "way"}, "geometry": {"type": "Point", "coordinates": [11.0987002, 46.1276339]}}, {"id": "223", "type": "Feature", "properties": {"highway": "service", "id": 24008903, "name": "Via alle R\u00f2ste", "type": "way"}, "geometry": {"type": "Point", "coordinates": [11.104776, 46.1283169]}}, {"id": "224", "type": "Feature", "properties": {"highway": "tertiary", "id": 24054398, "name": "Via Monte Baldo", "type": "way"}, "geometry": {"type": "Point", "coordinates": [11.1145071, 46.0571377]}}, {"id": "225", "type": "Feature", "properties": {"highway": "tertiary", "id": 24054401, "name": "Via Hubert Jedin", "type": "way"}, "geometry": {"type": "Point", "coordinates": [11.1132073, 46.051165]}}, {"id": "226", "type": "Feature", "properties": {"highway": "tertiary", "id": 24054406, "name": "Via Hubert Jedin", "type": "way"}, "geometry": {"type": "Point", "coordinates": [11.1119046, 46.051445]}}, {"id": "227", "type": "Feature", "properties": {"highway": "tertiary", "id": 24054407, "name": "Via Roberto da Sanseverino", "type": "way"}, "geometry": {"type": "Point", "coordinates": [11.1117521, 46.0507067]}}, {"id": "228", "type": "Feature", "properties": {"highway": "unclassified", "id": 24054411, "name": "Via delle Ghiaie", "type": "way"}, "geometry": {"type": "Point", "coordinates": [11.1163098, 46.0550715]}}, {"id": "229", "type": "Feature", "properties": {"highway": "secondary", "id": 24054414, "name": "Corso III Novembre", "type": "way"}, "geometry": {"type": "Point", "coordinates": [11.1246414, 46.061161]}}, {"id": "230", "type": "Feature", "properties": {"highway": "residential", "id": 24054420, "name": "Via D\u00f2s Trento", "type": "way"}, "geometry": {"type": "Point", "coordinates": [11.1119541, 46.0747878]}}, {"id": "231", "type": "Feature", "properties": {"highway": "footway", "id": 24055245, "name": "", "type": "way"}, "geometry": {"type": "Point", "coordinates": [11.133849, 46.0707196]}}, {"id": "232", "type": "Feature", "properties": {"highway": "footway", "id": 24055246, "name": "", "type": "way"}, "geometry": {"type": "Point", "coordinates": [11.1337297, 46.0714904]}}, {"id": "233", "type": "Feature", "properties": {"highway": "steps", "id": 24055247, "name": "", "type": "way"}, "geometry": {"type": "Point", "coordinates": [11.1338182, 46.0709909]}}, {"id": "234", "type": "Feature", "properties": {"highway": "track", "id": 24055248, "name": "", "type": "way"}, "geometry": {"type": "Point", "coordinates": [11.1333557, 46.0721453]}}, {"id": "235", "type": "Feature", "properties": {"highway": "unclassified", "id": 24055250, "name": "Via delle Laste", "type": "way"}, "geometry": {"type": "Point", "coordinates": [11.1335019, 46.0731021]}}, {"id": "236", "type": "Feature", "properties": {"highway": "unclassified", "id": 24055251, "name": "Via delle Laste", "type": "way"}, "geometry": {"type": "Point", "coordinates": [11.1335743, 46.0720897]}}, {"id": "237", "type": "Feature", "properties": {"highway": "residential", "id": 24055252, "name": "Via per l'Osservatorio", "type": "way"}, "geometry": {"type": "Point", "coordinates": [11.1364163, 46.0718642]}}, {"id": "238", "type": "Feature", "properties": {"highway": "residential", "id": 24055253, "name": "Via per l'Osservatorio", "type": "way"}, "geometry": {"type": "Point", "coordinates": [11.1364379, 46.0705466]}}, {"id": "239", "type": "Feature", "properties": {"highway": "residential", "id": 24055254, "name": "Via per l'Osservatorio", "type": "way"}, "geometry": {"type": "Point", "coordinates": [11.135741, 46.0708176]}}, {"id": "240", "type": "Feature", "properties": {"highway": "unclassified", "id": 24055255, "name": "Via dei Giardini", "type": "way"}, "geometry": {"type": "Point", "coordinates": [11.1311688, 46.0677873]}}, {"id": "241", "type": "Feature", "properties": {"highway": "residential", "id": 24055256, "name": "", "type": "way"}, "geometry": {"type": "Point", "coordinates": [11.1408953, 46.07421]}}, {"id": "242", "type": "Feature", "properties": {"highway": "steps", "id": 24055257, "name": "", "type": "way"}, "geometry": {"type": "Point", "coordinates": [11.140066, 46.0731545]}}, {"id": "243", "type": "Feature", "properties": {"highway": "residential", "id": 24055258, "name": "", "type": "way"}, "geometry": {"type": "Point", "coordinates": [11.1407426, 46.0745068]}}, {"id": "244", "type": "Feature", "properties": {"highway": "footway", "id": 24055259, "name": "", "type": "way"}, "geometry": {"type": "Point", "coordinates": [11.139789, 46.0731266]}}, {"id": "245", "type": "Feature", "properties": {"highway": "residential", "id": 24055260, "name": "", "type": "way"}, "geometry": {"type": "Point", "coordinates": [11.1395907, 46.0751096]}}, {"id": "246", "type": "Feature", "properties": {"highway": "steps", "id": 24055261, "name": "", "type": "way"}, "geometry": {"type": "Point", "coordinates": [11.1416224, 46.076089]}}, {"id": "247", "type": "Feature", "properties": {"highway": "footway", "id": 24055263, "name": "", "type": "way"}, "geometry": {"type": "Point", "coordinates": [11.1416224, 46.076089]}}, {"id": "248", "type": "Feature", "properties": {"highway": "residential", "id": 24055264, "name": "", "type": "way"}, "geometry": {"type": "Point", "coordinates": [11.1399047, 46.0744441]}}, {"id": "249", "type": "Feature", "properties": {"highway": "tertiary", "id": 24087530, "name": "Via al Desert", "type": "way"}, "geometry": {"type": "Point", "coordinates": [11.1173859, 46.051859]}}, {"id": "250", "type": "Feature", "properties": {"highway": "unclassified", "id": 24094883, "name": "Via Ragazzi del '99", "type": "way"}, "geometry": {"type": "Point", "coordinates": [11.1263022, 46.035586]}}, {"id": "251", "type": "Feature", "properties": {"highway": "tertiary", "id": 24094886, "name": "Via Alcide De Gasperi", "type": "way"}, "geometry": {"type": "Point", "coordinates": [11.1215908, 46.0526289]}}, {"id": "252", "type": "Feature", "properties": {"highway": "tertiary", "id": 24094888, "name": "Via Alcide De Gasperi", "type": "way"}, "geometry": {"type": "Point", "coordinates": [11.1221517, 46.0516542]}}, {"id": "253", "type": "Feature", "properties": {"highway": "residential", "id": 24094889, "name": "Via generale Giacomo Medici", "type": "way"}, "geometry": {"type": "Point", "coordinates": [11.1231951, 46.0539187]}}, {"id": "254", "type": "Feature", "properties": {"highway": "residential", "id": 24094895, "name": "Corso III Novembre", "type": "way"}, "geometry": {"type": "Point", "coordinates": [11.1237028, 46.0629949]}}, {"id": "255", "type": "Feature", "properties": {"highway": "residential", "id": 24094897, "name": "Corso III Novembre", "type": "way"}, "geometry": {"type": "Point", "coordinates": [11.1238568, 46.0623277]}}, {"id": "256", "type": "Feature", "properties": {"highway": "unclassified", "id": 24094898, "name": "Via Brigata Acqui", "type": "way"}, "geometry": {"type": "Point", "coordinates": [11.1289105, 46.0663345]}}, {"id": "257", "type": "Feature", "properties": {"highway": "pedestrian", "id": 24094901, "name": "Via San Vigilio", "type": "way"}, "geometry": {"type": "Point", "coordinates": [11.1222948, 46.066779]}}, {"id": "258", "type": "Feature", "properties": {"highway": "secondary", "id": 24094905, "name": "Via Benedetto Giovanelli", "type": "way"}, "geometry": {"type": "Point", "coordinates": [11.1314023, 46.0647525]}}, {"id": "259", "type": "Feature", "properties": {"highway": "residential", "id": 24094907, "name": "Via Zara", "type": "way"}, "geometry": {"type": "Point", "coordinates": [11.1338192, 46.0650378]}}, {"id": "260", "type": "Feature", "properties": {"highway": "residential", "id": 24095640, "name": "Via San Pietro", "type": "way"}, "geometry": {"type": "Point", "coordinates": [11.1242719, 46.0689035]}}, {"id": "261", "type": "Feature", "properties": {"highway": "tertiary", "id": 24161642, "name": "Via Antonio Rosmini", "type": "way"}, "geometry": {"type": "Point", "coordinates": [11.1193025, 46.0653343]}}, {"id": "262", "type": "Feature", "properties": {"highway": "tertiary", "id": 24161644, "name": "Via Alcide De Gasperi", "type": "way"}, "geometry": {"type": "Point", "coordinates": [11.1178508, 46.0521906]}}, {"id": "263", "type": "Feature", "properties": {"highway": "residential", "id": 24161653, "name": "Via Don Giovanni Battista Zanella", "type": "way"}, "geometry": {"type": "Point", "coordinates": [11.1187456, 46.0674478]}}, {"id": "264", "type": "Feature", "properties": {"highway": "tertiary", "id": 24161659, "name": "Via Valnigra", "type": "way"}, "geometry": {"type": "Point", "coordinates": [11.1444633, 46.0503974]}}, {"id": "265", "type": "Feature", "properties": {"highway": "tertiary", "id": 24161661, "name": "Via Vittorio de Riccabona", "type": "way"}, "geometry": {"type": "Point", "coordinates": [11.1413976, 46.0421056]}}, {"id": "266", "type": "Feature", "properties": {"highway": "unclassified", "id": 24161868, "name": "Viale Trieste", "type": "way"}, "geometry": {"type": "Point", "coordinates": [11.1359714, 46.0651345]}}, {"id": "267", "type": "Feature", "properties": {"highway": "secondary", "id": 24161870, "name": "Piazza Vicenza", "type": "way"}, "geometry": {"type": "Point", "coordinates": [11.1321477, 46.0625571]}}, {"id": "268", "type": "Feature", "properties": {"highway": "secondary", "id": 24161871, "name": "Via Fiume", "type": "way"}, "geometry": {"type": "Point", "coordinates": [11.1318114, 46.0631221]}}, {"id": "269", "type": "Feature", "properties": {"highway": "unclassified", "id": 24163736, "name": "Via delle Palazzine", "type": "way"}, "geometry": {"type": "Point", "coordinates": [11.1021624, 46.1146966]}}, {"id": "270", "type": "Feature", "properties": {"highway": "unclassified", "id": 24202637, "name": "Via Giovanni Battista Borsieri", "type": "way"}, "geometry": {"type": "Point", "coordinates": [11.1211474, 46.065462]}}, {"id": "271", "type": "Feature", "properties": {"highway": "unclassified", "id": 24202638, "name": "Via Santa Margherita", "type": "way"}, "geometry": {"type": "Point", "coordinates": [11.1178159, 46.0682676]}}, {"id": "272", "type": "Feature", "properties": {"highway": "unclassified", "id": 24226866, "name": "Via Antonio da Trento", "type": "way"}, "geometry": {"type": "Point", "coordinates": [11.1180723, 46.075171]}}, {"id": "273", "type": "Feature", "properties": {"highway": "tertiary", "id": 24226869, "name": "Via Antonio Rosmini", "type": "way"}, "geometry": {"type": "Point", "coordinates": [11.1196074, 46.063908]}}, {"id": "274", "type": "Feature", "properties": {"highway": "tertiary", "id": 24226871, "name": "Largo Eugenio Prati", "type": "way"}, "geometry": {"type": "Point", "coordinates": [11.1184451, 46.0576635]}}, {"id": "275", "type": "Feature", "properties": {"highway": "tertiary", "id": 24226872, "name": "Via San Pio X", "type": "way"}, "geometry": {"type": "Point", "coordinates": [11.1203604, 46.0549738]}}, {"id": "276", "type": "Feature", "properties": {"highway": "tertiary", "id": 24226975, "name": "Via della Resistenza", "type": "way"}, "geometry": {"type": "Point", "coordinates": [11.1546953, 46.0659688]}}, {"id": "277", "type": "Feature", "properties": {"highway": "tertiary", "id": 24227368, "name": "", "type": "way"}, "geometry": {"type": "Point", "coordinates": [11.144297, 46.0498855]}}, {"id": "278", "type": "Feature", "properties": {"highway": "residential", "id": 24374069, "name": "Via di Pietrastretta", "type": "way"}, "geometry": {"type": "Point", "coordinates": [11.1254565, 46.076143]}}, {"id": "279", "type": "Feature", "properties": {"highway": "unclassified", "id": 24374070, "name": "Via di Pietrastretta", "type": "way"}, "geometry": {"type": "Point", "coordinates": [11.1252937, 46.0766048]}}, {"id": "280", "type": "Feature", "properties": {"highway": "unclassified", "id": 24374072, "name": "Via degli Olivi", "type": "way"}, "geometry": {"type": "Point", "coordinates": [11.1347039, 46.074853]}}, {"id": "281", "type": "Feature", "properties": {"highway": "tertiary", "id": 24374074, "name": "Via Muralta", "type": "way"}, "geometry": {"type": "Point", "coordinates": [11.1295688, 46.0758601]}}, {"id": "282", "type": "Feature", "properties": {"highway": "secondary", "id": 24389740, "name": "Via Asiago", "type": "way"}, "geometry": {"type": "Point", "coordinates": [11.138527, 46.0461055]}}, {"id": "283", "type": "Feature", "properties": {"highway": "tertiary", "id": 24389742, "name": "Via Gocciadoro", "type": "way"}, "geometry": {"type": "Point", "coordinates": [11.131325, 46.0562111]}}, {"id": "284", "type": "Feature", "properties": {"highway": "secondary", "id": 24389744, "name": "Piazza Vicenza", "type": "way"}, "geometry": {"type": "Point", "coordinates": [11.1334447, 46.0617879]}}, {"id": "285", "type": "Feature", "properties": {"highway": "secondary", "id": 24389746, "name": "Piazza Vicenza", "type": "way"}, "geometry": {"type": "Point", "coordinates": [11.1323605, 46.0625395]}}, {"id": "286", "type": "Feature", "properties": {"highway": "secondary", "id": 24389747, "name": "Piazza Vicenza", "type": "way"}, "geometry": {"type": "Point", "coordinates": [11.1323468, 46.062549]}}, {"id": "287", "type": "Feature", "properties": {"highway": "unclassified", "id": 24389748, "name": "Via padre Eusebio Chini", "type": "way"}, "geometry": {"type": "Point", "coordinates": [11.1321483, 46.053291]}}, {"id": "288", "type": "Feature", "properties": {"highway": "residential", "id": 24392333, "name": "Largo Medaglie d'Oro", "type": "way"}, "geometry": {"type": "Point", "coordinates": [11.1327785, 46.0576834]}}, {"id": "289", "type": "Feature", "properties": {"highway": "unclassified", "id": 24392334, "name": "Viale delle Robinie", "type": "way"}, "geometry": {"type": "Point", "coordinates": [11.1312292, 46.0507861]}}, {"id": "290", "type": "Feature", "properties": {"highway": "residential", "id": 24392580, "name": "Via Pant\u00e9", "type": "way"}, "geometry": {"type": "Point", "coordinates": [11.151989, 46.0647474]}}, {"id": "291", "type": "Feature", "properties": {"highway": "unclassified", "id": 24392581, "name": "Via alla Cascata", "type": "way"}, "geometry": {"type": "Point", "coordinates": [11.150779, 46.0684448]}}, {"id": "292", "type": "Feature", "properties": {"highway": "unclassified", "id": 24392582, "name": "Via alla Cascata", "type": "way"}, "geometry": {"type": "Point", "coordinates": [11.1521942, 46.0677399]}}, {"id": "293", "type": "Feature", "properties": {"highway": "residential", "id": 24400261, "name": "Via Giuseppe Gerola", "type": "way"}, "geometry": {"type": "Point", "coordinates": [11.1330621, 46.0583774]}}, {"id": "294", "type": "Feature", "properties": {"highway": "unclassified", "id": 24435189, "name": "Via della Malpensada", "type": "way"}, "geometry": {"type": "Point", "coordinates": [11.1311994, 46.0448359]}}, {"id": "295", "type": "Feature", "properties": {"highway": "unclassified", "id": 24435190, "name": "Via della Malpensada", "type": "way"}, "geometry": {"type": "Point", "coordinates": [11.1312671, 46.0452976]}}, {"id": "296", "type": "Feature", "properties": {"highway": "unclassified", "id": 24435202, "name": "Via della Malpensada", "type": "way"}, "geometry": {"type": "Point", "coordinates": [11.1311829, 46.0458294]}}, {"id": "297", "type": "Feature", "properties": {"highway": "residential", "id": 24435352, "name": "Via Caio Valerio Mariano", "type": "way"}, "geometry": {"type": "Point", "coordinates": [11.1149948, 46.0747456]}}, {"id": "298", "type": "Feature", "properties": {"highway": "unclassified", "id": 24435353, "name": "Via Lavisotto", "type": "way"}, "geometry": {"type": "Point", "coordinates": [11.1209802, 46.0758864]}}, {"id": "299", "type": "Feature", "properties": {"highway": "residential", "id": 24435556, "name": "Via Sal\u00e9", "type": "way"}, "geometry": {"type": "Point", "coordinates": [11.152033, 46.0631913]}}, {"id": "300", "type": "Feature", "properties": {"highway": "unclassified", "id": 24436368, "name": "Via la Clarina", "type": "way"}, "geometry": {"type": "Point", "coordinates": [11.1269687, 46.0500397]}}, {"id": "301", "type": "Feature", "properties": {"highway": "tertiary", "id": 24436838, "name": "Via Gocciadoro", "type": "way"}, "geometry": {"type": "Point", "coordinates": [11.1287822, 46.0577046]}}, {"id": "302", "type": "Feature", "properties": {"highway": "residential", "id": 24436840, "name": "Via Antonio Fogazzaro", "type": "way"}, "geometry": {"type": "Point", "coordinates": [11.1299168, 46.0561212]}}, {"id": "303", "type": "Feature", "properties": {"highway": "service", "id": 24436841, "name": "", "type": "way"}, "geometry": {"type": "Point", "coordinates": [11.1300366, 46.0557863]}}, {"id": "304", "type": "Feature", "properties": {"highway": "unclassified", "id": 24436844, "name": "Via Annibale Apollonio", "type": "way"}, "geometry": {"type": "Point", "coordinates": [11.1336202, 46.0575985]}}, {"id": "305", "type": "Feature", "properties": {"highway": "unclassified", "id": 24436845, "name": "Via Aurelio Nicolodi", "type": "way"}, "geometry": {"type": "Point", "coordinates": [11.1353125, 46.0616617]}}, {"id": "306", "type": "Feature", "properties": {"highway": "unclassified", "id": 24436846, "name": "Via Luisa Anzoletti", "type": "way"}, "geometry": {"type": "Point", "coordinates": [11.1350583, 46.0578214]}}, {"id": "307", "type": "Feature", "properties": {"highway": "residential", "id": 24436848, "name": "Via Coni Zugna", "type": "way"}, "geometry": {"type": "Point", "coordinates": [11.1341702, 46.0602521]}}, {"id": "308", "type": "Feature", "properties": {"highway": "residential", "id": 24436849, "name": "Via Ravenna", "type": "way"}, "geometry": {"type": "Point", "coordinates": [11.135222, 46.0606687]}}, {"id": "309", "type": "Feature", "properties": {"highway": "unclassified", "id": 24436952, "name": "Via Riccardo Zandonai", "type": "way"}, "geometry": {"type": "Point", "coordinates": [11.1191446, 46.0557177]}}, {"id": "310", "type": "Feature", "properties": {"highway": "service", "id": 24441735, "name": "", "type": "way"}, "geometry": {"type": "Point", "coordinates": [11.1125459, 46.0573464]}}, {"id": "311", "type": "Feature", "properties": {"highway": "service", "id": 24441736, "name": "", "type": "way"}, "geometry": {"type": "Point", "coordinates": [11.1132791, 46.0575094]}}, {"id": "312", "type": "Feature", "properties": {"highway": "unclassified", "id": 24442249, "name": "Viale dei Tigli", "type": "way"}, "geometry": {"type": "Point", "coordinates": [11.1321589, 46.0512097]}}, {"id": "313", "type": "Feature", "properties": {"highway": "secondary", "id": 24442251, "name": "Via Asiago", "type": "way"}, "geometry": {"type": "Point", "coordinates": [11.1395192, 46.043926]}}, {"id": "314", "type": "Feature", "properties": {"highway": "tertiary", "id": 24442252, "name": "Via Enrico Conci", "type": "way"}, "geometry": {"type": "Point", "coordinates": [11.1388023, 46.0432715]}}, {"id": "315", "type": "Feature", "properties": {"highway": "residential", "id": 24442337, "name": "Via Giuseppe Ferrandi", "type": "way"}, "geometry": {"type": "Point", "coordinates": [11.1382425, 46.0430234]}}, {"id": "316", "type": "Feature", "properties": {"highway": "residential", "id": 24442338, "name": "Via Tullio Odorizzi", "type": "way"}, "geometry": {"type": "Point", "coordinates": [11.1365208, 46.0431247]}}, {"id": "317", "type": "Feature", "properties": {"highway": "unclassified", "id": 24443774, "name": "Via San Bartolameo", "type": "way"}, "geometry": {"type": "Point", "coordinates": [11.1341805, 46.0528841]}}, {"id": "318", "type": "Feature", "properties": {"highway": "secondary", "id": 24443775, "name": "Via Vicenza", "type": "way"}, "geometry": {"type": "Point", "coordinates": [11.1365167, 46.0538812]}}, {"id": "319", "type": "Feature", "properties": {"highway": "unclassified", "id": 24443780, "name": "Viale Nepomuceno Bolognini", "type": "way"}, "geometry": {"type": "Point", "coordinates": [11.1360463, 46.0645226]}}, {"id": "320", "type": "Feature", "properties": {"highway": "unclassified", "id": 24443781, "name": "Viale Nepomuceno Bolognini", "type": "way"}, "geometry": {"type": "Point", "coordinates": [11.1326803, 46.0624117]}}, {"id": "321", "type": "Feature", "properties": {"highway": "residential", "id": 24443784, "name": "Via Altipiani", "type": "way"}, "geometry": {"type": "Point", "coordinates": [11.1344796, 46.062109]}}, {"id": "322", "type": "Feature", "properties": {"highway": "residential", "id": 24443785, "name": "Via Tofane", "type": "way"}, "geometry": {"type": "Point", "coordinates": [11.1350259, 46.0624071]}}, {"id": "323", "type": "Feature", "properties": {"highway": "unclassified", "id": 24443786, "name": "Via Bezzecca", "type": "way"}, "geometry": {"type": "Point", "coordinates": [11.13188, 46.0626542]}}, {"id": "324", "type": "Feature", "properties": {"highway": "unclassified", "id": 24443787, "name": "Via Giovanni a Prato", "type": "way"}, "geometry": {"type": "Point", "coordinates": [11.127377, 46.0607283]}}, {"id": "325", "type": "Feature", "properties": {"highway": "unclassified", "id": 24443788, "name": "Via Bartolomeo Malfatti", "type": "way"}, "geometry": {"type": "Point", "coordinates": [11.1257935, 46.0613941]}}, {"id": "326", "type": "Feature", "properties": {"highway": "residential", "id": 24443789, "name": "Via Fratelli Perini", "type": "way"}, "geometry": {"type": "Point", "coordinates": [11.1234094, 46.0606392]}}, {"id": "327", "type": "Feature", "properties": {"highway": "unclassified", "id": 24443790, "name": "Via Giovanni a Prato", "type": "way"}, "geometry": {"type": "Point", "coordinates": [11.1261418, 46.0619943]}}, {"id": "328", "type": "Feature", "properties": {"highway": "unclassified", "id": 24443791, "name": "Via Malta", "type": "way"}, "geometry": {"type": "Point", "coordinates": [11.1273106, 46.0619457]}}, {"id": "329", "type": "Feature", "properties": {"highway": "service", "id": 24443792, "name": "Via dei Mille", "type": "way"}, "geometry": {"type": "Point", "coordinates": [11.1283317, 46.0623011]}}, {"id": "330", "type": "Feature", "properties": {"highway": "unclassified", "id": 24443793, "name": "Via dei Mille", "type": "way"}, "geometry": {"type": "Point", "coordinates": [11.1278127, 46.0625781]}}, {"id": "331", "type": "Feature", "properties": {"highway": "unclassified", "id": 24443798, "name": "Via Adamello", "type": "way"}, "geometry": {"type": "Point", "coordinates": [11.130787, 46.0605827]}}, {"id": "332", "type": "Feature", "properties": {"highway": "residential", "id": 24443799, "name": "Via Maranza", "type": "way"}, "geometry": {"type": "Point", "coordinates": [11.1326852, 46.0588218]}}, {"id": "333", "type": "Feature", "properties": {"highway": "residential", "id": 24443801, "name": "Via Gorizia", "type": "way"}, "geometry": {"type": "Point", "coordinates": [11.130953, 46.0590184]}}, {"id": "334", "type": "Feature", "properties": {"highway": "unclassified", "id": 24443804, "name": "Via Bolghera", "type": "way"}, "geometry": {"type": "Point", "coordinates": [11.1292643, 46.0586979]}}, {"id": "335", "type": "Feature", "properties": {"highway": "residential", "id": 24443806, "name": "Via Bolghera", "type": "way"}, "geometry": {"type": "Point", "coordinates": [11.1317472, 46.0580593]}}, {"id": "336", "type": "Feature", "properties": {"highway": "unclassified", "id": 24443807, "name": "Via Adamello", "type": "way"}, "geometry": {"type": "Point", "coordinates": [11.1323231, 46.0598526]}}, {"id": "337", "type": "Feature", "properties": {"highway": "unclassified", "id": 24443808, "name": "Via Adamello", "type": "way"}, "geometry": {"type": "Point", "coordinates": [11.1333591, 46.0597148]}}, {"id": "338", "type": "Feature", "properties": {"highway": "unclassified", "id": 24443809, "name": "Via Milano", "type": "way"}, "geometry": {"type": "Point", "coordinates": [11.1307328, 46.0630206]}}, {"id": "339", "type": "Feature", "properties": {"highway": "unclassified", "id": 24443810, "name": "Via San Bernardino", "type": "way"}, "geometry": {"type": "Point", "coordinates": [11.1293371, 46.0641157]}}, {"id": "340", "type": "Feature", "properties": {"highway": "residential", "id": 24443811, "name": "Via dei Molini", "type": "way"}, "geometry": {"type": "Point", "coordinates": [11.1294911, 46.0667916]}}, {"id": "341", "type": "Feature", "properties": {"highway": "residential", "id": 24443813, "name": "Via padre Benedetto Bonelli", "type": "way"}, "geometry": {"type": "Point", "coordinates": [11.1335729, 46.0646851]}}, {"id": "342", "type": "Feature", "properties": {"highway": "residential", "id": 24443814, "name": "Via Galileo Galilei", "type": "way"}, "geometry": {"type": "Point", "coordinates": [11.1252002, 46.0680639]}}, {"id": "343", "type": "Feature", "properties": {"highway": "unclassified", "id": 24443815, "name": "Via di Briamasco", "type": "way"}, "geometry": {"type": "Point", "coordinates": [11.1190026, 46.0649318]}}, {"id": "344", "type": "Feature", "properties": {"highway": "unclassified", "id": 24443816, "name": "Via Torquato Taramelli", "type": "way"}, "geometry": {"type": "Point", "coordinates": [11.118175, 46.0613971]}}, {"id": "345", "type": "Feature", "properties": {"highway": "unclassified", "id": 24443817, "name": "Via Giovanni Pascoli", "type": "way"}, "geometry": {"type": "Point", "coordinates": [11.1182273, 46.0606197]}}, {"id": "346", "type": "Feature", "properties": {"highway": "tertiary", "id": 24443820, "name": "Via Ergisto Bezzi", "type": "way"}, "geometry": {"type": "Point", "coordinates": [11.1191879, 46.0585235]}}, {"id": "347", "type": "Feature", "properties": {"highway": "unclassified", "id": 24443821, "name": "Via Fabio Filzi", "type": "way"}, "geometry": {"type": "Point", "coordinates": [11.1202996, 46.059054]}}, {"id": "348", "type": "Feature", "properties": {"highway": "unclassified", "id": 24443822, "name": "Via Damiano Chiesa", "type": "way"}, "geometry": {"type": "Point", "coordinates": [11.1199536, 46.0599196]}}, {"id": "349", "type": "Feature", "properties": {"highway": "unclassified", "id": 24443823, "name": "Via Fratelli Bronzetti", "type": "way"}, "geometry": {"type": "Point", "coordinates": [11.1211038, 46.0592034]}}, {"id": "350", "type": "Feature", "properties": {"highway": "tertiary", "id": 24443824, "name": "Via Vittorio Veneto", "type": "way"}, "geometry": {"type": "Point", "coordinates": [11.1235598, 46.0586192]}}, {"id": "351", "type": "Feature", "properties": {"highway": "tertiary", "id": 24443825, "name": "Via Vittorio Veneto", "type": "way"}, "geometry": {"type": "Point", "coordinates": [11.1227497, 46.0584271]}}, {"id": "352", "type": "Feature", "properties": {"highway": "unclassified", "id": 24443826, "name": "Via Pietro Andrea Mattioli", "type": "way"}, "geometry": {"type": "Point", "coordinates": [11.1223304, 46.0595564]}}, {"id": "353", "type": "Feature", "properties": {"highway": "unclassified", "id": 24443827, "name": "Via Ottaviano Rovereti", "type": "way"}, "geometry": {"type": "Point", "coordinates": [11.1228078, 46.0604671]}}, {"id": "354", "type": "Feature", "properties": {"highway": "tertiary", "id": 24443828, "name": "Via Giuseppe Giusti", "type": "way"}, "geometry": {"type": "Point", "coordinates": [11.1189945, 46.0591714]}}, {"id": "355", "type": "Feature", "properties": {"highway": "unclassified", "id": 24443829, "name": "Via Giovanni e Tina Lorenzoni", "type": "way"}, "geometry": {"type": "Point", "coordinates": [11.1233437, 46.0570376]}}, {"id": "356", "type": "Feature", "properties": {"highway": "residential", "id": 24443830, "name": "Via Cauriol", "type": "way"}, "geometry": {"type": "Point", "coordinates": [11.124433, 46.0568209]}}, {"id": "357", "type": "Feature", "properties": {"highway": "unclassified", "id": 24443831, "name": "Via Giacomo Matteotti", "type": "way"}, "geometry": {"type": "Point", "coordinates": [11.124218, 46.0569644]}}, {"id": "358", "type": "Feature", "properties": {"highway": "residential", "id": 24443832, "name": "Via Cauriol", "type": "way"}, "geometry": {"type": "Point", "coordinates": [11.1229691, 46.0549926]}}, {"id": "359", "type": "Feature", "properties": {"highway": "residential", "id": 24443833, "name": "Via Cauriol", "type": "way"}, "geometry": {"type": "Point", "coordinates": [11.1211337, 46.0548384]}}, {"id": "360", "type": "Feature", "properties": {"highway": "residential", "id": 24449617, "name": "Via generale Guglielmo Pecori Giraldi", "type": "way"}, "geometry": {"type": "Point", "coordinates": [11.1339166, 46.0585384]}}, {"id": "361", "type": "Feature", "properties": {"highway": "unclassified", "id": 24449618, "name": "Via Milano", "type": "way"}, "geometry": {"type": "Point", "coordinates": [11.129894, 46.0622182]}}, {"id": "362", "type": "Feature", "properties": {"highway": "unclassified", "id": 24449619, "name": "Via Gorizia", "type": "way"}, "geometry": {"type": "Point", "coordinates": [11.1344141, 46.0627546]}}, {"id": "363", "type": "Feature", "properties": {"highway": "unclassified", "id": 24449620, "name": "Via Regina Pacis", "type": "way"}, "geometry": {"type": "Point", "coordinates": [11.1350092, 46.0632217]}}, {"id": "364", "type": "Feature", "properties": {"highway": "unclassified", "id": 24449621, "name": "Viale Nepomuceno Bolognini", "type": "way"}, "geometry": {"type": "Point", "coordinates": [11.1351879, 46.064123]}}, {"id": "365", "type": "Feature", "properties": {"highway": "secondary", "id": 24451123, "name": "Strada del Porfido", "type": "way"}, "geometry": {"type": "Point", "coordinates": [11.1283908, 46.1346398]}}, {"id": "366", "type": "Feature", "properties": {"highway": "tertiary", "id": 24451124, "name": "Via ai Bolleri", "type": "way"}, "geometry": {"type": "Point", "coordinates": [11.1244887, 46.1013556]}}, {"id": "367", "type": "Feature", "properties": {"highway": "unclassified", "id": 24451373, "name": "Via Sabbionare", "type": "way"}, "geometry": {"type": "Point", "coordinates": [11.1292373, 46.0932639]}}, {"id": "368", "type": "Feature", "properties": {"highway": "unclassified", "id": 24451480, "name": "Lungadige Louis Braille", "type": "way"}, "geometry": {"type": "Point", "coordinates": [11.115799, 46.077769]}}, {"id": "369", "type": "Feature", "properties": {"highway": "service", "id": 24451481, "name": "", "type": "way"}, "geometry": {"type": "Point", "coordinates": [11.094728, 46.1036462]}}, {"id": "370", "type": "Feature", "properties": {"highway": "unclassified", "id": 24451482, "name": "Via Innsbruck", "type": "way"}, "geometry": {"type": "Point", "coordinates": [11.0952604, 46.1013615]}}, {"id": "371", "type": "Feature", "properties": {"highway": "unclassified", "id": 24451484, "name": "Via Innsbruck", "type": "way"}, "geometry": {"type": "Point", "coordinates": [11.0930353, 46.1041218]}}, {"id": "372", "type": "Feature", "properties": {"highway": "tertiary", "id": 24451485, "name": "Strada dell'Interporto", "type": "way"}, "geometry": {"type": "Point", "coordinates": [11.0883946, 46.115098]}}, {"id": "373", "type": "Feature", "properties": {"highway": "residential", "id": 24451516, "name": "Via Aeroporto", "type": "way"}, "geometry": {"type": "Point", "coordinates": [11.1098729, 46.1080281]}}, {"id": "374", "type": "Feature", "properties": {"highway": "unclassified", "id": 24454035, "name": "Via Gino Buccella", "type": "way"}, "geometry": {"type": "Point", "coordinates": [11.1238631, 46.0578345]}}, {"id": "375", "type": "Feature", "properties": {"highway": "unclassified", "id": 24454036, "name": "Via Monte Corno", "type": "way"}, "geometry": {"type": "Point", "coordinates": [11.1239286, 46.0576941]}}, {"id": "376", "type": "Feature", "properties": {"highway": "secondary", "id": 24454097, "name": "Via Vicenza", "type": "way"}, "geometry": {"type": "Point", "coordinates": [11.1351221, 46.0617236]}}, {"id": "377", "type": "Feature", "properties": {"highway": "unclassified", "id": 24454141, "name": "Via Ortigara", "type": "way"}, "geometry": {"type": "Point", "coordinates": [11.124693, 46.0583531]}}, {"id": "378", "type": "Feature", "properties": {"highway": "unclassified", "id": 24479365, "name": "Via alla Cros", "type": "way"}, "geometry": {"type": "Point", "coordinates": [11.1500123, 46.0557911]}}, {"id": "379", "type": "Feature", "properties": {"highway": "unclassified", "id": 24479369, "name": "Localit\u00e0 Negrano", "type": "way"}, "geometry": {"type": "Point", "coordinates": [11.1478278, 46.0516432]}}, {"id": "380", "type": "Feature", "properties": {"highway": "unclassified", "id": 24479370, "name": "Via Marzola", "type": "way"}, "geometry": {"type": "Point", "coordinates": [11.1490451, 46.0502252]}}, {"id": "381", "type": "Feature", "properties": {"highway": "unclassified", "id": 24479371, "name": "Salita dei Molini", "type": "way"}, "geometry": {"type": "Point", "coordinates": [11.1467286, 46.0469168]}}, {"id": "382", "type": "Feature", "properties": {"highway": "residential", "id": 24479373, "name": "Via Madonnina", "type": "way"}, "geometry": {"type": "Point", "coordinates": [11.1566333, 46.0644523]}}, {"id": "383", "type": "Feature", "properties": {"highway": "unclassified", "id": 24479374, "name": "Via alla Cascata", "type": "way"}, "geometry": {"type": "Point", "coordinates": [11.1514049, 46.0710573]}}, {"id": "384", "type": "Feature", "properties": {"highway": "unclassified", "id": 24479375, "name": "Via Ponte Alto", "type": "way"}, "geometry": {"type": "Point", "coordinates": [11.1504301, 46.0736088]}}, {"id": "385", "type": "Feature", "properties": {"highway": "unclassified", "id": 24479376, "name": "Via alla Cascata", "type": "way"}, "geometry": {"type": "Point", "coordinates": [11.150941, 46.0738487]}}, {"id": "386", "type": "Feature", "properties": {"highway": "tertiary", "id": 24479380, "name": "Via Don Alfonso Anselmi", "type": "way"}, "geometry": {"type": "Point", "coordinates": [11.1427818, 46.0757324]}}, {"id": "387", "type": "Feature", "properties": {"highway": "secondary", "id": 24479477, "name": "Via Francesco Petrarca", "type": "way"}, "geometry": {"type": "Point", "coordinates": [11.1236098, 46.0752223]}}, {"id": "388", "type": "Feature", "properties": {"highway": "residential", "id": 24479478, "name": "Piazza Centa", "type": "way"}, "geometry": {"type": "Point", "coordinates": [11.123859, 46.0754451]}}, {"id": "389", "type": "Feature", "properties": {"highway": "unclassified", "id": 24479479, "name": "Via Clementino Vannetti", "type": "way"}, "geometry": {"type": "Point", "coordinates": [11.122285, 46.0731256]}}, {"id": "390", "type": "Feature", "properties": {"highway": "secondary", "id": 24479576, "name": "Piazza Venezia", "type": "way"}, "geometry": {"type": "Point", "coordinates": [11.1267561, 46.0675275]}}, {"id": "391", "type": "Feature", "properties": {"highway": "unclassified", "id": 24479769, "name": "Via Giovanni Antonio Scopoli", "type": "way"}, "geometry": {"type": "Point", "coordinates": [11.117902, 46.076593]}}, {"id": "392", "type": "Feature", "properties": {"highway": "residential", "id": 24479770, "name": "Via cardinale Giovanni Gerolamo Morone", "type": "way"}, "geometry": {"type": "Point", "coordinates": [11.1183712, 46.0778161]}}, {"id": "393", "type": "Feature", "properties": {"highway": "unclassified", "id": 24479771, "name": "Via Umberto Moggioli", "type": "way"}, "geometry": {"type": "Point", "coordinates": [11.1169879, 46.0797274]}}, {"id": "394", "type": "Feature", "properties": {"highway": "unclassified", "id": 24479772, "name": "Via Umberto Moggioli", "type": "way"}, "geometry": {"type": "Point", "coordinates": [11.1163708, 46.0798482]}}, {"id": "395", "type": "Feature", "properties": {"highway": "tertiary", "id": 24479774, "name": "Via Caduti di Nassirya", "type": "way"}, "geometry": {"type": "Point", "coordinates": [11.1149619, 46.0842799]}}, {"id": "396", "type": "Feature", "properties": {"highway": "tertiary", "id": 24479775, "name": "Via Ezio Maccani", "type": "way"}, "geometry": {"type": "Point", "coordinates": [11.1134435, 46.0844274]}}, {"id": "397", "type": "Feature", "properties": {"highway": "tertiary", "id": 24479779, "name": "Via Ezio Maccani", "type": "way"}, "geometry": {"type": "Point", "coordinates": [11.1053573, 46.0941748]}}, {"id": "398", "type": "Feature", "properties": {"highway": "unclassified", "id": 24479805, "name": "Viale Trieste", "type": "way"}, "geometry": {"type": "Point", "coordinates": [11.1357846, 46.0649292]}}, {"id": "399", "type": "Feature", "properties": {"highway": "secondary", "id": 24558722, "name": "Via Venezia", "type": "way"}, "geometry": {"type": "Point", "coordinates": [11.1376673, 46.0694063]}}, {"id": "400", "type": "Feature", "properties": {"highway": "unclassified", "id": 24581558, "name": "Via della Malpensada", "type": "way"}, "geometry": {"type": "Point", "coordinates": [11.1325531, 46.0464144]}}, {"id": "401", "type": "Feature", "properties": {"highway": "unclassified", "id": 24581835, "name": "Via San Martino", "type": "way"}, "geometry": {"type": "Point", "coordinates": [11.1254158, 46.0737615]}}, {"id": "402", "type": "Feature", "properties": {"highway": "secondary", "id": 24581836, "name": "Via del Brennero", "type": "way"}, "geometry": {"type": "Point", "coordinates": [11.1246625, 46.0754526]}}, {"id": "403", "type": "Feature", "properties": {"highway": "unclassified", "id": 24594239, "name": "Via della Torre Franca", "type": "way"}, "geometry": {"type": "Point", "coordinates": [11.1302875, 46.0107665]}}, {"id": "404", "type": "Feature", "properties": {"highway": "unclassified", "id": 24594505, "name": "Via della Torre Franca", "type": "way"}, "geometry": {"type": "Point", "coordinates": [11.1313374, 46.0116777]}}, {"id": "405", "type": "Feature", "properties": {"highway": "tertiary", "id": 24615057, "name": "Via Alcide De Gasperi", "type": "way"}, "geometry": {"type": "Point", "coordinates": [11.12313, 46.0509407]}}, {"id": "406", "type": "Feature", "properties": {"highway": "residential", "id": 24615059, "name": "Via Anna Frank", "type": "way"}, "geometry": {"type": "Point", "coordinates": [11.1250111, 46.050728]}}, {"id": "407", "type": "Feature", "properties": {"highway": "residential", "id": 24615867, "name": "Via Antonio Gramsci", "type": "way"}, "geometry": {"type": "Point", "coordinates": [11.1279869, 46.0534217]}}, {"id": "408", "type": "Feature", "properties": {"highway": "residential", "id": 24615868, "name": "Viale Verona", "type": "way"}, "geometry": {"type": "Point", "coordinates": [11.1288062, 46.0536629]}}, {"id": "409", "type": "Feature", "properties": {"highway": "secondary", "id": 24615870, "name": "Via di Madonna Bianca", "type": "way"}, "geometry": {"type": "Point", "coordinates": [11.1307712, 46.0417547]}}, {"id": "410", "type": "Feature", "properties": {"highway": "residential", "id": 24615872, "name": "Via Clorinda Veglia Menguzzato", "type": "way"}, "geometry": {"type": "Point", "coordinates": [11.1326373, 46.0404438]}}, {"id": "411", "type": "Feature", "properties": {"highway": "service", "id": 24615874, "name": "Piazzale Europa", "type": "way"}, "geometry": {"type": "Point", "coordinates": [11.1339614, 46.0399835]}}, {"id": "412", "type": "Feature", "properties": {"highway": "residential", "id": 24615876, "name": "Lungadige Giacomo Leopardi", "type": "way"}, "geometry": {"type": "Point", "coordinates": [11.1167039, 46.0763446]}}, {"id": "413", "type": "Feature", "properties": {"highway": "residential", "id": 24615877, "name": "Via dei Ferrovieri", "type": "way"}, "geometry": {"type": "Point", "coordinates": [11.1172501, 46.0760277]}}, {"id": "414", "type": "Feature", "properties": {"highway": "unclassified", "id": 24615878, "name": "Via Gino Pancheri", "type": "way"}, "geometry": {"type": "Point", "coordinates": [11.1153952, 46.0810332]}}, {"id": "415", "type": "Feature", "properties": {"highway": "unclassified", "id": 24615879, "name": "Via Tullio Garbari", "type": "way"}, "geometry": {"type": "Point", "coordinates": [11.1161271, 46.0801462]}}, {"id": "416", "type": "Feature", "properties": {"highway": "residential", "id": 24615880, "name": "Via Giambattista Unterveger", "type": "way"}, "geometry": {"type": "Point", "coordinates": [11.1157393, 46.0906672]}}, {"id": "417", "type": "Feature", "properties": {"highway": "tertiary", "id": 24615881, "name": "", "type": "way"}, "geometry": {"type": "Point", "coordinates": [11.1124232, 46.1067673]}}, {"id": "418", "type": "Feature", "properties": {"highway": "tertiary", "id": 24615883, "name": "Via Soprasasso", "type": "way"}, "geometry": {"type": "Point", "coordinates": [11.1092383, 46.1062113]}}, {"id": "419", "type": "Feature", "properties": {"highway": "tertiary", "id": 24615884, "name": "Via Soprasasso", "type": "way"}, "geometry": {"type": "Point", "coordinates": [11.1095521, 46.106267]}}, {"id": "420", "type": "Feature", "properties": {"highway": "tertiary", "id": 24615885, "name": "Via Soprasasso", "type": "way"}, "geometry": {"type": "Point", "coordinates": [11.1077556, 46.1057031]}}, {"id": "421", "type": "Feature", "properties": {"highway": "primary_link", "id": 24615887, "name": "", "type": "way"}, "geometry": {"type": "Point", "coordinates": [11.1095623, 46.1052133]}}, {"id": "422", "type": "Feature", "properties": {"highway": "cycleway", "id": 24615889, "name": "Pista Ciclabile Valle dell'Adige", "type": "way"}, "geometry": {"type": "Point", "coordinates": [11.1098436, 46.1357249]}}, {"id": "423", "type": "Feature", "properties": {"highway": "residential", "id": 24695252, "name": "Via Mantova", "type": "way"}, "geometry": {"type": "Point", "coordinates": [11.1242849, 46.0667745]}}, {"id": "424", "type": "Feature", "properties": {"highway": "residential", "id": 24695422, "name": "Via Roccabruna", "type": "way"}, "geometry": {"type": "Point", "coordinates": [11.1233841, 46.0666735]}}, {"id": "425", "type": "Feature", "properties": {"highway": "residential", "id": 24695444, "name": "Vicolo del Liceo", "type": "way"}, "geometry": {"type": "Point", "coordinates": [11.1247227, 46.0667974]}}, {"id": "426", "type": "Feature", "properties": {"highway": "pedestrian", "id": 24695596, "name": "Vicolo della Storta", "type": "way"}, "geometry": {"type": "Point", "coordinates": [11.1240774, 46.0662062]}}, {"id": "427", "type": "Feature", "properties": {"highway": "", "id": 24695597, "name": "", "type": "way"}, "geometry": {"type": "Point", "coordinates": [11.124202, 46.0657555]}}, {"id": "428", "type": "Feature", "properties": {"highway": "pedestrian", "id": 24695599, "name": "Vicolo dei Gaudenti", "type": "way"}, "geometry": {"type": "Point", "coordinates": [11.1235325, 46.0658473]}}, {"id": "429", "type": "Feature", "properties": {"highway": "service", "id": 24695743, "name": "Seconda Androna di Borgo Nuovo", "type": "way"}, "geometry": {"type": "Point", "coordinates": [11.1235626, 46.065608]}}, {"id": "430", "type": "Feature", "properties": {"highway": "footway", "id": 24695868, "name": "", "type": "way"}, "geometry": {"type": "Point", "coordinates": [11.1253124, 46.0679896]}}, {"id": "431", "type": "Feature", "properties": {"highway": "service", "id": 24695869, "name": "", "type": "way"}, "geometry": {"type": "Point", "coordinates": [11.1261933, 46.0669358]}}, {"id": "432", "type": "Feature", "properties": {"highway": "residential", "id": 24696065, "name": "Vicolo Santa Maria Maddalena", "type": "way"}, "geometry": {"type": "Point", "coordinates": [11.1263015, 46.0684868]}}, {"id": "433", "type": "Feature", "properties": {"highway": "residential", "id": 24696066, "name": "Via Francesco Ferruccio", "type": "way"}, "geometry": {"type": "Point", "coordinates": [11.1265183, 46.0689471]}}, {"id": "434", "type": "Feature", "properties": {"highway": "footway", "id": 24696067, "name": "", "type": "way"}, "geometry": {"type": "Point", "coordinates": [11.1248247, 46.068084]}}, {"id": "435", "type": "Feature", "properties": {"highway": "unclassified", "id": 24711281, "name": "Via delle Laste", "type": "way"}, "geometry": {"type": "Point", "coordinates": [11.130844, 46.071602]}}, {"id": "436", "type": "Feature", "properties": {"highway": "footway", "id": 24711282, "name": "", "type": "way"}, "geometry": {"type": "Point", "coordinates": [11.1324398, 46.071989]}}, {"id": "437", "type": "Feature", "properties": {"highway": "steps", "id": 24711283, "name": "", "type": "way"}, "geometry": {"type": "Point", "coordinates": [11.1333679, 46.071993]}}, {"id": "438", "type": "Feature", "properties": {"highway": "unclassified", "id": 24711284, "name": "Via Augusto Avancini", "type": "way"}, "geometry": {"type": "Point", "coordinates": [11.1309562, 46.0710716]}}, {"id": "439", "type": "Feature", "properties": {"highway": "unclassified", "id": 24711285, "name": "Via della Collina", "type": "way"}, "geometry": {"type": "Point", "coordinates": [11.1300526, 46.0683367]}}, {"id": "440", "type": "Feature", "properties": {"highway": "footway", "id": 24711286, "name": "Via della Saluga", "type": "way"}, "geometry": {"type": "Point", "coordinates": [11.1296078, 46.0706751]}}, {"id": "441", "type": "Feature", "properties": {"highway": "steps", "id": 24711287, "name": "", "type": "way"}, "geometry": {"type": "Point", "coordinates": [11.1307148, 46.0715519]}}, {"id": "442", "type": "Feature", "properties": {"highway": "unclassified", "id": 24711288, "name": "Via dei Giardini", "type": "way"}, "geometry": {"type": "Point", "coordinates": [11.1339834, 46.070775]}}, {"id": "443", "type": "Feature", "properties": {"highway": "unclassified", "id": 24711289, "name": "Via della Saluga", "type": "way"}, "geometry": {"type": "Point", "coordinates": [11.1285871, 46.0702484]}}, {"id": "444", "type": "Feature", "properties": {"highway": "unclassified", "id": 24711290, "name": "Salita della spalliera", "type": "way"}, "geometry": {"type": "Point", "coordinates": [11.127831, 46.0733483]}}, {"id": "445", "type": "Feature", "properties": {"highway": "steps", "id": 24711291, "name": "Salita della spalliera", "type": "way"}, "geometry": {"type": "Point", "coordinates": [11.127108, 46.0736737]}}, {"id": "446", "type": "Feature", "properties": {"highway": "residential", "id": 24711292, "name": "Via Padre Alberto Gianordoli", "type": "way"}, "geometry": {"type": "Point", "coordinates": [11.1341638, 46.0741536]}}, {"id": "447", "type": "Feature", "properties": {"highway": "residential", "id": 24711293, "name": "Via Padre Alberto Gianordoli", "type": "way"}, "geometry": {"type": "Point", "coordinates": [11.1339447, 46.0747098]}}, {"id": "448", "type": "Feature", "properties": {"highway": "residential", "id": 24711294, "name": "Via degli Olivi", "type": "way"}, "geometry": {"type": "Point", "coordinates": [11.1343774, 46.0743106]}}, {"id": "449", "type": "Feature", "properties": {"highway": "residential", "id": 24711295, "name": "", "type": "way"}, "geometry": {"type": "Point", "coordinates": [11.1307292, 46.0688413]}}, {"id": "450", "type": "Feature", "properties": {"highway": "unclassified", "id": 24711313, "name": "Via della Collina", "type": "way"}, "geometry": {"type": "Point", "coordinates": [11.1311006, 46.0699265]}}, {"id": "451", "type": "Feature", "properties": {"highway": "unclassified", "id": 24728622, "name": "Via Luigi de Campi", "type": "way"}, "geometry": {"type": "Point", "coordinates": [11.1267089, 46.0757421]}}, {"id": "452", "type": "Feature", "properties": {"highway": "unclassified", "id": 24728623, "name": "Via dei Cappuccini", "type": "way"}, "geometry": {"type": "Point", "coordinates": [11.1292228, 46.0743329]}}, {"id": "453", "type": "Feature", "properties": {"highway": "residential", "id": 24728624, "name": "Via dei Cappuccini", "type": "way"}, "geometry": {"type": "Point", "coordinates": [11.1299459, 46.0755171]}}, {"id": "454", "type": "Feature", "properties": {"highway": "steps", "id": 24728625, "name": "Via dei Cappuccini", "type": "way"}, "geometry": {"type": "Point", "coordinates": [11.1299639, 46.0757355]}}, {"id": "455", "type": "Feature", "properties": {"highway": "residential", "id": 24728626, "name": "Via dei Cappuccini", "type": "way"}, "geometry": {"type": "Point", "coordinates": [11.129792, 46.0744375]}}, {"id": "456", "type": "Feature", "properties": {"highway": "residential", "id": 24728627, "name": "Via dei Giardini", "type": "way"}, "geometry": {"type": "Point", "coordinates": [11.1328365, 46.0699153]}}, {"id": "457", "type": "Feature", "properties": {"highway": "tertiary", "id": 24728628, "name": "Via della Spalliera", "type": "way"}, "geometry": {"type": "Point", "coordinates": [11.1263747, 46.0774895]}}, {"id": "458", "type": "Feature", "properties": {"highway": "unclassified", "id": 24728629, "name": "Via di Pietrastretta", "type": "way"}, "geometry": {"type": "Point", "coordinates": [11.1255654, 46.0773693]}}, {"id": "459", "type": "Feature", "properties": {"highway": "unclassified", "id": 24728630, "name": "Via dei Solteri", "type": "way"}, "geometry": {"type": "Point", "coordinates": [11.1215438, 46.0817235]}}, {"id": "460", "type": "Feature", "properties": {"highway": "residential", "id": 24728632, "name": "Localit\u00e0 Piazzina", "type": "way"}, "geometry": {"type": "Point", "coordinates": [11.1230195, 46.0857549]}}, {"id": "461", "type": "Feature", "properties": {"highway": "unclassified", "id": 24728634, "name": "Via Guglielmo Marconi", "type": "way"}, "geometry": {"type": "Point", "coordinates": [11.1197342, 46.0842093]}}, {"id": "462", "type": "Feature", "properties": {"highway": "residential", "id": 24728637, "name": "Salita Giuseppe dalla Fior", "type": "way"}, "geometry": {"type": "Point", "coordinates": [11.1213978, 46.0937166]}}, {"id": "463", "type": "Feature", "properties": {"highway": "path", "id": 24728638, "name": "Mesotrekking", "type": "way"}, "geometry": {"type": "Point", "coordinates": [11.1226013, 46.0884268]}}, {"id": "464", "type": "Feature", "properties": {"highway": "service", "id": 24728639, "name": "", "type": "way"}, "geometry": {"type": "Point", "coordinates": [11.1227733, 46.0904297]}}, {"id": "465", "type": "Feature", "properties": {"highway": "residential", "id": 24728642, "name": "Salita dei Giardini", "type": "way"}, "geometry": {"type": "Point", "coordinates": [11.1291454, 46.0694102]}}, {"id": "466", "type": "Feature", "properties": {"highway": "steps", "id": 24728643, "name": "Salita dei Giardini", "type": "way"}, "geometry": {"type": "Point", "coordinates": [11.1301926, 46.0693865]}}, {"id": "467", "type": "Feature", "properties": {"highway": "unclassified", "id": 24732720, "name": "Via Giacomo Matteotti", "type": "way"}, "geometry": {"type": "Point", "coordinates": [11.1221188, 46.0562934]}}, {"id": "468", "type": "Feature", "properties": {"highway": "unclassified", "id": 24732721, "name": "Via Don Narciso Sordo", "type": "way"}, "geometry": {"type": "Point", "coordinates": [11.1197852, 46.0565655]}}, {"id": "469", "type": "Feature", "properties": {"highway": "unclassified", "id": 24744091, "name": "Via di Zell", "type": "way"}, "geometry": {"type": "Point", "coordinates": [11.1441636, 46.0815234]}}, {"id": "470", "type": "Feature", "properties": {"highway": "unclassified", "id": 24744093, "name": "Via dei Val\u00f3ni", "type": "way"}, "geometry": {"type": "Point", "coordinates": [11.1487446, 46.0673043]}}, {"id": "471", "type": "Feature", "properties": {"highway": "unclassified", "id": 24744094, "name": "Via Mesiano", "type": "way"}, "geometry": {"type": "Point", "coordinates": [11.1415258, 46.0667035]}}, {"id": "472", "type": "Feature", "properties": {"highway": "pedestrian", "id": 24744096, "name": "Salita Giangrisostomo Tovazzi", "type": "way"}, "geometry": {"type": "Point", "coordinates": [11.1358023, 46.0657114]}}, {"id": "473", "type": "Feature", "properties": {"highway": "unclassified", "id": 24744097, "name": "Via Mario Cavalieri", "type": "way"}, "geometry": {"type": "Point", "coordinates": [11.1388746, 46.0710065]}}, {"id": "474", "type": "Feature", "properties": {"highway": "unclassified", "id": 24744100, "name": "Via Mario Cavalieri", "type": "way"}, "geometry": {"type": "Point", "coordinates": [11.1377222, 46.0699796]}}, {"id": "475", "type": "Feature", "properties": {"highway": "cycleway", "id": 24744101, "name": "", "type": "way"}, "geometry": {"type": "Point", "coordinates": [11.1383898, 46.0704281]}}, {"id": "476", "type": "Feature", "properties": {"highway": "unclassified", "id": 24744102, "name": "Piazza dei Predaroi", "type": "way"}, "geometry": {"type": "Point", "coordinates": [11.1594779, 46.0858392]}}, {"id": "477", "type": "Feature", "properties": {"highway": "track", "id": 24744103, "name": "", "type": "way"}, "geometry": {"type": "Point", "coordinates": [11.144402, 46.0967652]}}, {"id": "478", "type": "Feature", "properties": {"highway": "track", "id": 24744104, "name": "Strada de Mez", "type": "way"}, "geometry": {"type": "Point", "coordinates": [11.1467832, 46.0916453]}}, {"id": "479", "type": "Feature", "properties": {"highway": "service", "id": 24745016, "name": "Via della Ca' dei Gai", "type": "way"}, "geometry": {"type": "Point", "coordinates": [11.1074623, 46.0722417]}}, {"id": "480", "type": "Feature", "properties": {"highway": "path", "id": 24745017, "name": "", "type": "way"}, "geometry": {"type": "Point", "coordinates": [11.0895548, 46.0703888]}}, {"id": "481", "type": "Feature", "properties": {"highway": "path", "id": 24745024, "name": "", "type": "way"}, "geometry": {"type": "Point", "coordinates": [11.0759724, 46.0714043]}}, {"id": "482", "type": "Feature", "properties": {"highway": "service", "id": 24754297, "name": "", "type": "way"}, "geometry": {"type": "Point", "coordinates": [11.1055641, 46.1218059]}}, {"id": "483", "type": "Feature", "properties": {"highway": "unclassified", "id": 24755034, "name": "Pont de fer", "type": "way"}, "geometry": {"type": "Point", "coordinates": [11.1186927, 46.1380563]}}, {"id": "484", "type": "Feature", "properties": {"highway": "unclassified", "id": 24755377, "name": "Via Giuseppe Grazioli", "type": "way"}, "geometry": {"type": "Point", "coordinates": [11.134484, 46.0650937]}}, {"id": "485", "type": "Feature", "properties": {"highway": "secondary", "id": 24755378, "name": "Largo Porta Nuova", "type": "way"}, "geometry": {"type": "Point", "coordinates": [11.1267082, 46.0672723]}},